T,Px,Py,Pz,Vx,Vy,Vz,Roll,Pitch,Yaw,R_rate,P_rate,Y_rate,T,M1,M2,M3,Wb1,Wb2,Wb3
0.0,0.0,0.0,0.0,0.0,0.0,0.0,0.0,0.0,0.0,0.0,-0.0,0.0,0.0,0.0,0.0,0.0,0.0,0.0,0.0
0.001,0.0,0.0,1.0003852788865078e-05,0.0,0.0,0.010003852788865078,0.0,0.0,0.0,-26.093994426865528,20.254084688525808,27.950759047795458,0.0,30269.266385092804,29304.467387217628,29272.49370855579,-0.4554261177458542,-0.3535004647925455,0.48783277381562584
0.002,-6.9670162632258725e-09,8.975833089484802e-09,2.991635367615492e-05,-6.967016263225872e-06,8.975833089484802e-06,0.019912500887289842,-0.0004554261177458542,-0.0003535004647925455,0.00048783277381562584,-47.49571261047884,36.863116712035286,27.813515552327626,0.0,30163.977562905642,29230.08184524234,29195.924761494964,-0.8289565656338468,-0.6433827591719621,0.48543742294276626
0.003,-3.349508339305929e-08,4.3137715921492554e-08,5.964309494524341e-05,-2.652806712983342e-05,3.416188283200775e-05,0.02972674126908849,-0.001284382683379701,-0.0009968832239645076,0.0009732701967583922,-64.9778043252965,50.41024862915049,27.427247796122355,0.0,30069.698369314367,29148.393968051256,29125.852954331465,-1.13390740701626,-0.8800427346230695,0.4782950040632272
0.004,-9.669139870611254e-08,1.2448334207154754e-07,9.909043469404868e-05,-6.319631531305325e-05,8.134562615005498e-05,0.039447339748805266,-0.0024184593095727376,-0.0018767080392921415,0.0014519659755610856,-79.17072815120746,61.39277093479647,27.060502687694992,0.0,29977.85541511,29067.345555979547,29054.517401462137,-1.3813190546861,-1.0721117128192104,0.47091802154966445
0.005,-2.1724934285994447e-07,2.7959412416086094e-07,0.00014816546548254171,-0.00012055794415383192,0.0001551107820893134,0.04907503078849304,-0.0038002491870126704,-0.002948214029027017,0.001924260844706138,-90.60357380109686,70.22713180770421,26.706725690089787,0.0,29888.071931474526,28986.978221086138,28982.131406761415,-1.580455905710057,-1.226818379652061,0.46315382191465915
0.006,-4.186773079522055e-07,5.386342176926857e-07,0.00020677598459734183,-0.000201427965092261,0.00025904009353182474,0.05861051911480012,-0.005381579863915484,-0.004173908703303493,0.0023903811404251594,-99.72042455853372,77.26219765276905,26.360196265888444,0.0,29800.09981042166,28907.25972726949,28908.941648666907,-1.739093350635481,-1.3502183763377666,0.4549423480213477
0.007,-7.266574318638515e-07,9.345187138534861e-07,0.0002748304679911839,-0.00030798012391164604,0.00039588449616080037,0.06805448339384203,-0.007122029603948511,-0.005522388439670948,0.0028504533567368273,-106.89404090700273,82.79024633800891,26.017576706859003,0.0,29713.730421986187,28828.162640891605,28835.155241770328,-1.8637576299678305,-1.4473851644274984,0.4463057029876154
0.008,-1.1685126572204467e-06,1.5022229726337493e-06,0.00035223804875352503,-0.000441855225356595,0.0005677042587802633,0.07740758076234111,-0.008987682568537214,-0.006967350826806381,0.0033045457336617007,-112.43734618322725,87.05616375701013,25.677074340809405,0.0,29628.787855054597,28749.66409745555,28760.945610731047,-1.9599270501209556,-1.5225698152400757,0.43731005121946964
0.009000000000000001,-1.7727641333565564e-06,2.278209720833074e-06,0.0004389085002378676,-0.0006042514761361098,0.0007759867481993248,0.08667045148434252,-0.010950084461639208,-0.008486767518521565,0.0037526952231881775,-116.61306377639532,90.26514499444251,25.33786293280763,0.0,29545.123849532498,28671.74496298695,28686.458026938155,-2.0322007731452407,-1.5793348153222058,0.4280413191096386
0.010000000000000002,-2.568763978120438e-06,3.299954417644602e-06,0.0005347522235601877,-0.0007959998447638817,0.0010217446968115284,0.09584372332232013,-0.012985366375375439,-0.010062191498464665,0.004194924356784697,-119.64180162153555,92.58914568068263,24.999700152445854,0.0,29462.613484251637,28594.38915092316,28611.81420894443,-2.084440399277963,-1.6206661137011782,0.4185903854559001
0.011000000000000003,-3.586390913186866e-06,4.605552623020926e-06,0.0006396802389750052,-0.0010176269350664281,0.0013055982053763245,0.10492801541481746,-0.015073509736689125,-0.011678176942201263,0.004631251436456206,-121.70883347850753,94.1722867528971,24.66267824811672,0.0,29381.15151175886,28517.58306953337,28537.11614833516,-2.119888726655171,-1.649066942015907,0.40904449656954966
0.012000000000000004,-4.85579836556005e-06,6.2333957987966325e-06,0.0007536041805537272,-0.0012694074523731836,0.0016278431757757062,0.11392394157872207,-0.017197729609650585,-0.013321793410171558,0.00506169637424583,-122.96978690220372,95.13538199055286,24.327064466453216,0.0,29300.649250040315,28441.315173408846,28462.44929761917,-2.141269368161949,-1.666636364354181,0.39948269440776585
0.013000000000000005,-6.407206359159709e-06,8.221904219408755e-06,0.0008764362935830736,-0.0015514079935996595,0.0019885084206121228,0.12283211302934649,-0.019343957271569838,-0.014982219061049223,0.0054862837465303555,-123.55541421376783,95.57973006645645,23.993201416617218,0.0,29221.031951679655,28365.57559802021,28387.885230857297,-2.150870312659419,-1.6751350352065855,0.38997377355769913
0.014000000000000005,-8.270729962151828e-06,1.0609307542772276e-05,0.0010080894341366557,-0.0018635236029921193,0.0023874033233635215,0.1316531405535821,-0.02150040605826549,-0.016650400048876305,0.0059050441093444934,-123.57559442268827,95.59028998737432,23.661447044109828,0.0,29142.236580772722,28290.355860811724,28313.483867269126,-2.1506140198996135,-1.6760402436170478,0.3805757809132615
0.015000000000000006,-1.0476238256594275e-05,1.3433465154644998e-05,0.0011484770703291674,-0.002205508294442447,0.0028241576118727216,0.14038763619251166,-0.023657207056050542,-0.018318765342092154,0.00631801426605049,-123.12269018790221,95.23833970879434,23.332140416285096,0.0,29064.20993700258,28215.64861583754,28239.29533174474,-2.1421162205888975,-1.6705919858548006,0.37133641101439707
0.016000000000000007,-1.3053238797431563e-05,1.6731719703435207e-05,0.0012975132848271611,-0.002577000540837288,0.0032982545487902117,0.14903621449799367,-0.02580610338374235,-0.019980987944143474,0.006725236937852305,-122.27436386794486,94.58370169676787,23.005584022458027,0.0,28986.90707451331,28141.447451704415,28165.361513080636,-2.126735242602993,-1.659831527065267,0.3622938795051027
0.017000000000000008,-1.6030783361502755e-05,2.0540778329976933e-05,0.0014551127782552822,-0.0029775445640711916,0.0038090586265417245,0.15759949342812113,-0.027940193624019578,-0.02163178495747622,0.007126760125388399,-121.09593990145365,93.67660574925861,22.682036377280205,0.0,28910.28997057499,28067.7467247265,28091.71737015174,-2.1056133905020524,-1.6446336756878337,0.3534780112487965
0.01800000000000001,-1.9437391481971315e-05,2.489661700422463e-05,0.001621190873197795,-0.00340660812046856,0.004355838674247697,0.16607809494251285,-0.030053716486097122,-0.023266750159893435,0.007522636341229065,-119.64238666726756,92.55924806495455,22.361710822055997,0.0,28834.326405521704,27994.541420856527,28018.392027596798,-2.0797116591202385,-1.6257337957606597,0.34491138209762084
0.01900000000000001,-2.330098884268984e-05,2.9834404138013046e-05,0.0017956635185500812,-0.0038635973607185257,0.004937787133788417,0.1744726453522861,-0.032141870058385105,-0.024882213791797083,0.00791292182145279,-117.95997916174967,91.26709602106823,22.044777848734554,0.0,28758.989021116944,27921.82704124503,27945.40969552996,-2.0498388554390155,-1.6037504155417917,0.3366104206167506
0.02000000000000001,-2.7648858089810613e-05,3.538844027491457e-05,0.0019784472940227076,-0.0043478692471207725,0.0055540361369015205,0.1827837754726263,-0.03420066008034154,-0.02647512511609854,0.00829767577778392,-116.0876939309928,89.8299801124657,21.73136923390328,0.0,28684.25452941973,27849.599507282684,27872.790441985708,-2.016676029751791,-1.5792041510925146,0.32858641953214374
0.02100000000000001,-3.2507600020531015e-05,4.1592111185583483e-05,0.0021694594146416217,-0.004858741930720406,0.006203670910668912,0.19101212061891393,-0.0362267725604848,-0.028042954036062093,0.00867695972188213,-114.0583793974051,88.27300777595595,21.42158291465245,0.0,28610.10304846612,27777.855081767273,27800.55084201805,-1.9807969718897982,-1.5525335463120205,0.32084643416482095
0.022000000000000013,-3.790310344460788e-05,4.8477852137127676e-05,0.0023686177351224594,-0.005395503424076864,0.006885740951544193,0.19915832048083787,-0.03821746682045839,-0.02958360866239108,0.00905083687473178,-111.89973776366946,86.61732817558881,21.11548796387286,0.0,28536.51754471729,27706.590303457462,27728.70452341521,-1.9426854064775045,-1.5241083327672158,0.3133940619483724
0.023000000000000013,-4.386052229432976e-05,5.607712147243976e-05,0.0025758407540255033,-0.005957418849721879,0.0075992693353120816,0.2072230189030438,-0.04017048567655265,-0.031095366228335558,0.009419371662866594,-109.63514884460783,84.8807722876063,20.813129299932985,0.0,28463.483365331926,27635.801932769453,27657.262625707437,-1.9027494190320602,-1.494240530478859,0.3062301069539899
0.024000000000000014,-5.040425879227892e-05,6.442038194210064e-05,0.0027910476176212203,-0.006543736497949164,0.008343260469660874,0.2152068635957168,-0.042083979999805114,-0.03257681517638985,0.009782629296793728,-107.28436128669281,83.07838865303438,20.514531944083537,0.0,28390.98784596528,27565.48690676775,27586.234186417263,-1.861333559037805,-1.4631937420312346,0.29935313865837543
0.025000000000000015,-5.7557951681171346e-05,7.353708848749006e-05,0.0030141581234153073,-0.007153692888892426,0.009116706545389427,0.2231105057940869,-0.043956445340157045,-0.0340268065956368,0.010140675423723539,-104.86407253325333,81.22289183987186,20.219704749489452,0.0,28319.01998204224,27495.64230192079,27515.626466229325,-1.818728994254079,-1.431190934803218,0.29275995661157594
0.026000000000000016,-6.534446868276903e-05,8.34556813874856e-05,0.0032450927232974295,-0.007786517001597683,0.009918592899995532,0.23093459988212206,-0.045786668672912464,-0.0354444134862338,0.010493575845383265,-102.3884154532288,79.32503787196201,19.92864359302602,0.0,28247.570153353412,27426.265303351374,27445.445222862494,-1.7751820302244137,-1.3984209579502138,0.2864459733350486
0.027000000000000017,-7.378590248867576e-05,9.420358385959913e-05,0.003483772526290006,-0.008441433805906728,0.010747902472113534,0.23867980299257643,-0.04757368363847115,-0.03682889657636873,0.010841396291538042,-99.86936666556919,77.39393855097656,19.641334058726418,0.0,28176.629893431516,27357.353179524143,27375.69494184503,-1.7309012583776553,-1.3650440004724784,0.28040552740748126
0.028000000000000018,-8.29035696992225e-05,0.0001058072033554261,0.0037301193008830117,-0.009117667210546743,0.011603619495826972,0.24634677459300572,-0.049316732908666804,-0.03817967562516944,0.011184202240346918,-97.3170891706287,75.43732464776598,19.357753661460634,0.0,28106.191696522572,27288.90326148657,27306.37903107114,-1.6860635536821331,-1.3311961629981155,0.2746321377686627
0.02900000000000002,-9.271801222134461e-05,0.0001182919359147363,0.003984055476948289,-0.009814442522122113,0.012484732559310204,0.25393617606527785,-0.051015236533151195,-0.039496305319168826,0.011522058777529395,-94.74021986905983,73.46176630809926,19.077873667259343,0.0,28036.248856111542,27220.91292592434,27237.499984910668,-1.6408191072187075,-1.2969932877168409,0.2691187090773042
0.03000000000000002,-0.00010324900071545321,0.00013168217304648146,0.004245504147232707,-0.010530988494108592,0.013390237131745142,0.26144867028441743,-0.05266876530392964,-0.040778455015575796,0.011855030487302595,-92.14611084491322,71.47285765334237,18.801660567613542,0.0,27966.795329926168,27153.379581411344,27169.0595227172,-1.5952956491762185,-1.2625341673176365,0.2638576966886035
0.03100000000000002,-0.00011451553974739368,0.00014600131069182398,0.00451438906843397,-0.011266539031940477,0.014319137645342508,0.26888492120126356,-0.05427701833108103,-0.04202589170743585,0.012183181369049837,-89.54103186022742,69.47537141556455,18.529077262156722,0.0,27897.825627154638,27086.300657334144,27101.05870580316,-1.54960199272076,-1.227903234058922,0.2588412385818515
0.03200000000000002,-0.0001265358743568221,0.0001612717598968341,0.004790634661866304,-0.012020334609428408,0.015270449205010117,0.27624559343233446,-0.055839804152675136,-0.04323846568768341,0.012506574774630888,-86.9303403090793,67.47338849229436,18.260083998910247,0.0,27829.33471429555,27019.673595053904,27033.498036299345,-1.5038310081726318,-1.1931728136003812,0.25406126042071264
0.03300000000000002,-0.0001393274977995122,0.0001775149588831193,0.005074166013725735,-0.012791623442690107,0.01624319898628521,0.28353135185943046,-0.05735702481094772,-0.0444160984743512,0.012825273362102605,-84.31862387286714,65.4704065080289,17.994639115472882,0.0,27761.31793663266,26953.49584093829,26966.377540770394,-1.4580621192927967,-1.1584050144220561,0.2495095589065386
0.03400000000000002,-0.00015290716025973238,0.00019475138625531225,0.005364908874966561,-0.013579662460220165,0.01723642737219296,0.290742861240826,-0.05882866241827994,-0.04555877263053543,0.013139339062375766,-81.7098202743779,63.46943080227756,17.732699618329775,0.0,27693.770952809504,26887.764840954143,26899.696840998797,-1.41236339868863,-1.1236533121109682,0.24517786768717542
0.035000000000000024,-0.0001672908783611512,0.00021300057512669502,0.005662789660801927,-0.01438371810141883,0.018249188871382778,0.29788078583536615,-0.06025476781328065,-0.04666652317240188,0.013448833055982762,-79.10731781990097,61.473050705583006,17.474221631897397,0.0,27626.68968038411,26822.478036560784,26833.4552139656,-1.3667933269394301,-1.088963878132457,0.24105790931906768
0.036000000000000025,-0.00018249394533178729,0.00023228112797965097,0.0059677354498422945,-0.01520306697063607,0.01928055285295596,0.30494578904036795,-0.061635450971659504,-0.04773943030845972,0.013753815757682588,-76.51403982438167,59.483503498210624,17.21916074347541,0.0,27560.070250584613,26757.63286168465,26767.65164273238,-1.3214022696318193,-1.0543766946221382,0.23714143612653515
0.037000000000000026,-0.00019853094170118026,0.0002526107321072562,0.006279673982886197,-0.01603699636939298,0.0203296041276052,0.311938533043903,-0.06297087289059702,-0.04877761329512506,0.014054346807086388,-73.93251551604425,57.502728055550975,16.967472265910963,0.0,27493.90897077246,26693.226740591017,26702.28485965779,-1.276233717761966,-1.0199264899685776,0.23342026226259804
0.03800000000000003,-0.0002154157464269538,0.0002740061755071055,0.006598533661377986,-0.01688480472577354,0.021395443399849355,0.31885967849178887,-0.06426123871063379,-0.04978122522857334,0.014350485063867357,-71.36493959863716,55.53240985759824,16.719111435645633,0.0,27428.20229335974,26629.257086497353,26637.35338315364,-1.2313253296357678,-0.9856435242963935,0.22988628882211515
0.03900000000000003,-0.00023316154836386933,0.0002964833631192127,0.0069242435455474155,-0.01774580193691553,0.02247718761210721,0.3257098841694287,-0.06550679187711689,-0.050750448622155386,0.01464228860642721,-68.8132222984897,53.574018766563675,16.474033560439462,0.0,27362.94679012886,26565.721300797533,26572.855548993837,-1.1867098062517587,-0.9515542492223437,0.2265315234872105
0.04000000000000003,-0.00025178085800183923,0.00032005733331719275,0.007256733352245908,-0.018619309637969893,0.023573970197980024,0.33248980669849254,-0.06670780917513232,-0.05168549164315715,0.014929814733140923,-66.27903142918899,51.6288407479147,16.232194128369347,0.0,27298.139131071835,26502.616772786794,26508.789537028395,-1.1424156269965198,-0.9176818622905093,0.22334809588448934
0.04100000000000003,-0.00027128551941059837,0.000344742274576487,0.007595933452494236,-0.019504661408759113,0.024684941259294275,0.3392001002483276,-0.06786459649860446,-0.05258658490319608,0.015213119965503858,-63.76382775966567,49.6980045187843,15.993548887147085,0.0,27233.776067008454,26439.940879794893,26445.153394019224,-1.0984676681573455,-0.8840467731736233,0.22032826958411533
0.04200000000000003,-0.00029168672233817613,0.0003705515422555883,0.00794177486875614,-0.020401202927577775,0.02580926767910128,0.3458414162619039,-0.06897748523668519,-0.05345397871371989,0.01549226005266325,-61.26889476429875,47.78250394751226,15.758053901109212,0.0,27169.854415361704,26377.690987649345,26381.945053200514,-1.0548877231294982,-0.8506669959486485,0.21746445147653048
0.04300000000000003,-0.0003129950144182601,0.00039749767543645093,0.008294189271952185,-0.02130829208008398,0.026946133180862652,0.352414403196044,-0.07004682917938011,-0.05428794073245116,0.01576728997694434,-58.795363659779795,45.88321689402242,15.525665591598933,0.0,27106.37104856908,26315.86445140334,26319.16235107102,-1.011694940151604,-0.8175584794280821,0.21474919910230028
0.04400000000000003,-0.0003352203134482404,0.0004255924137788568,0.008653108978227828,-0.022225299029980338,0.028094738342405896,0.35891970627564235,-0.0710730018601507,-0.05508875393865854,0.016038263960081338,-56.34423448766991,44.000921068568154,15.296340764884718,0.0,27043.32288469192,26254.458616273183,26256.803041844556,-0.9689061908507076,-0.7847353855808299,0.21217522637806496
0.04500000000000003,-0.0003583719197053778,0.00045484671435071624,0.00901846694548938,-0.023151606257137393,0.029254300571859425,0.3653579672615519,-0.07205639426647628,-0.055856714885215195,0.016305235469935606,-53.91639387926874,42.136307392374434,15.070036631374105,0.0,26980.70687985606,26193.470818739068,26194.864809918115,-0.9265363807369844,-0.7522103244449674,0.2097354080717082
0.046000000000000034,-0.00038245852827331443,0.0004852707684023426,0.009390196769721176,-0.024086608567936624,0.030424054051626397,0.3717298242317949,-0.07299741286047164,-0.056592132183844554,0.01656825722754924,-51.512630036769814,40.289991265139406,14.846710818499506,0.0,26918.520022215518,26132.898387770267,26133.34528065926,-0.8845987109921141,-0.7199945525695908,0.20742278329009878
0.047000000000000035,-0.00040748824135519116,0.0005168740180578374,0.009768232681096918,-0.025029713081876733,0.03160324965549484,0.37803591137574216,-0.073896477860975,-0.05729532518702099,0.01682738121442352,-49.13364537856968,38.462522078485506,14.62632137918186,0.0,26856.759327181087,26072.738646142425,26072.242029767338,-0.8431048993882029,-0.6880981408788932,0.20523055818313196
0.048000000000000036,-0.0004334685805530632,0.0005496651729010139,0.010152509539897816,-0.025980339197872064,0.032791154843176476,0.3842768588008979,-0.07475402174633834,-0.05796662283591157,0.01708265867994508,-46.780067224460204,36.65439125931231,14.408826797595744,0.0,26795.421833697386,26012.988911819502,26011.552591422384,-0.8020653669113952,-0.656530116894114,0.2031521080244829
0.04900000000000004,-0.0004604064990962194,0.0005836522264369066,0.010542962832249739,-0.026937918543156206,0.0339870535358927,0.39045329235192344,-0.07557048794370946,-0.058606362648700804,0.017334140148912717,-44.452456835771805,34.86603908088193,14.194185992882403,0.0,26734.50460138648,25953.64649937792,25951.274465401853,-0.7614893956034591,-0.6252985854467938,0.20118097877957553
0.05000000000000004,-0.0004883083940034902,0.0006188424724129682,0.010939528665691272,-0.027901894907270863,0.035190245976061664,0.39656583344153296,-0.07634632967609434,-0.05921488982779121,0.017581875429128976,-42.1513170747913,33.097860440752015,13.98235832202471,0.0,26674.004708406257,25894.70872145373,25891.405123317134,-0.7213852622458394,-0.594410831345116,0.1993108882572301
0.05100000000000004,-0.0005171801181667462,0.0006552425209866355,0.011342143764584168,-0.028871724163256073,0.036400048573667264,0.40261509889289526,-0.07708200894310155,-0.05979255646784792,0.017825913619041938,-39.87709890511597,31.35020977237488,13.773303582091573,0.0,26613.9192498957,25836.172890197246,25831.942014097425,-0.6817603517649489,-0.56387340689292,0.197535726905528
0.05200000000000004,-0.000547026992344598,0.0006928583147281296,0.011750745465377346,-0.029846874177851753,0.03761579374149413,0.4086017007931784,-0.07777799561513925,-0.060339720849566764,0.018066303115426164,-37.630206918870485,29.62340523001994,13.566982012181667,0.0,26554.24533690048,25778.036318722032,25772.882568828813,-0.6426212536119292,-0.5336922066893184,0.19584955830072204
0.05300000000000004,-0.0005778538170568606,0.0007316951444492094,0.012165271711735225,-0.030826824712262543,0.038836829721079796,0.4145262463578789,-0.07843476662408029,-0.06085674680648312,0.01830309162109758,-35.41100404674265,27.91773226394653,13.363354295720606,0.0,26494.98009568946,25720.296322537488,25714.224205039616,-0.6039738438452615,-0.5038725317424749,0.19424661937324572
0.05400000000000004,-0.000609664884371681,0.000771757664850165,0.012585661049540805,-0.03181106731482045,0.0400625204009556,0.4203893378055798,-0.07905280523613299,-0.06134400315417924,0.018536326152668432,-33.21981558158494,26.23344668385659,13.162381562591744,0.0,26436.120667387164,25662.950220956256,25655.964330508126,-0.5658233552046554,-0.47441914460128887,0.19272132038656764
0.05500000000000004,-0.0006424639895783769,0.0008130499099786781,0.013011852621783594,-0.032799105206695885,0.04129224512851303,0.4261915722427895,-0.07963260039493697,-0.061801863172958924,0.018766053048339455,-31.056932625313916,24.570777292576285,12.964025391678122,0.0,26377.664207859885,25605.99533846924,25598.100346657935,-0.528174437095776,-0.4453363169308543,0.19126824469822168
0.05600000000000004,-0.000676254442740029,0.0008555753084953124,0.01344378616334211,-0.033790453161652106,0.04252539851663437,0.43193354155851543,-0.08017464612481874,-0.06223070413648864,0.018992317975736386,-28.922615051072107,22.929928158698043,12.768247813607697,0.0,26319.60788780317,25549.42900608244,25540.629651595205,-0.49103120709528075,-0.4166278707269552,0.18988214831443884
0.057000000000000044,-0.0007110390801207354,0.0008993366987413726,0.013881401995670346,-0.03478463738070629,0.043761390246060156,0.43761583232823575,-0.08067944098574682,-0.06263090688010368,0.01921516593979441,-26.817094057823738,21.311080585682717,12.575011313718326,0.0,26261.94889298704,25493.24856261089,25483.549642834158,-0.45439729532655065,-0.38829721417006857,0.18855795925088614
0.058000000000000045,-0.0007468202754831835,0.0009443363436056981,0.01432464102139728,-0.035781195362448115,0.044999644864325485,0.443239025726934,-0.08114748757287285,-0.06300285540348169,0.019434641290694332,-24.740574382054557,19.71439482560652,12.38427883505653,0.0,26204.68442462276,25437.45135592624,25426.857719749918,-0.41827588283799577,-0.3603473729573059,0.18729077670644756
0.059000000000000045,-0.000783599951252855,0.0009905759451876769,0.014773444718848151,-0.036779675769671435,0.04623960158197882,0.4488036974508705,-0.08157929205467426,-0.06334693650322666,0.019650787731851117,-22.693236220894324,18.14001157784143,12.196013781685416,0.0,26147.81169982103,25382.034744154895,25370.55128579188,-0.38266973493418344,-0.3327810178142512,0.18607587006374615
0.060000000000000046,-0.000821379589545748,0.0010380566592543734,0.01522775513649592,-0.03777963829289303,0.047480714066696586,0.45431041764776825,-0.0819753637446617,-0.06366353943160989,0.019863648327960132,-20.67523691211548,16.588053306478738,12.010180021859815,0.0,26091.3279521164,25326.99609682485,25314.627750485677,-0.34758123025571436,-0.3056004887751774,0.18490867771669173
0.06100000000000005,-0.0008601602430570104,0.0010867791094901955,0.015687514887351015,-0.03878065351126244,0.04872245023582213,0.45975975085509696,-0.08233621470240798,-0.06395305557830427,0.02007326551309883,-18.68671240921439,15.058625404733945,11.82674189124511,0.0,26035.230432037286,25272.33279595956,25259.084531247718,-0.313012386276298,-0.27880781672426286,0.18378480573568368
0.06200000000000005,-0.0008999425458083176,0.0011367434015379812,0.01615266714329716,-0.03978230275130726,0.04996429204778558,0.46515225594614545,-0.08266235936032205,-0.06421587817244134,0.0202796810988846,-16.72777858354831,13.551817230038585,11.645664196003302,0.0,25979.516407704476,25218.042237117876,25203.91905503272,-0.27896488177681017,-0.25240474261127177,0.18270002637461857
0.06300000000000004,-0.0009407267237522238,0.0011879491368307813,0.01662315562938074,-0.04078417794390613,0.05120573529279998,0.47048848608357685,-0.08295431417314957,-0.06445240200273401,0.020482936282686475,-14.798532380416002,12.067703029609659,11.4669122157768,0.0,25924.183165444036,25164.121830379514,25149.12875983157,-0.24544007676690704,-0.22639273468752202,0.18165027642743325
0.06400000000000004,-0.0009825126052320611,0.0012403954262139583,0.017098924618060906,-0.04178588147983748,0.052446289383177,0.47576898868016837,-0.08321259728765082,-0.0646630231537536,0.020683071655888938,-12.899052851541242,10.606342773108874,11.290451706420376,0.0,25869.228010402974,25110.56900127574,25094.71109603453,-0.21243903024748906,-0.20077300405256387,0.18063165543873083
0.06500000000000004,-0.001025299631296274,0.0012940809033575192,0.01757991892342735,-0.04278702606421294,0.053685477143561006,0.48099430536644217,-0.08343772823029898,-0.06484813875673945,0.020880127212203385,-11.029402082888764,9.167782906306396,11.116248902486085,0.0,25814.648267158536,25057.381191665478,25040.663527672463,-0.17996251614537068,-0.17554651875542393,0.1796404237757656
0.06600000000000004,-0.001069086865866345,0.0013490037379588614,0.018066083895392247,-0.04378723457007088,0.054922834601342334,0.4861649719648998,-0.08363022761117171,-0.06500814675356255,0.021074142356022972,-9.189626033616733,7.752057037340829,10.944270519442368,0.0,25760.44128031324,25004.555860557077,24986.983533547325,-0.1480110376968547,-0.1507140166539488,0.1786730005688355
0.06700000000000005,-0.0011138730057577207,0.0014051616487363392,0.018557365413862825,-0.04478613989137593,0.056157910777477865,0.49128151847057866,-0.08379061684248532,-0.06514344567266654,0.02126515591081619,-7.379755299459379,6.359186565382,10.774483755494671,0.0,25706.604415069793,24952.09048487636,24933.6686082612,-0.11658484051310214,-0.12627601720466702,0.17772596152508413
0.06800000000000005,-0.001159656390553365,0.0014625519162142582,0.01905370988290048,-0.04578338479564441,0.057390267477919,0.49634446903765506,-0.08391941787045239,-0.06525443441598104,0.021453206127552218,-5.599805811692272,4.989181259822354,10.606856293147358,0.0,25653.135057781044,24899.98256018163,24880.716263152477,-0.0856839245224163,-0.10223283232683915,0.17679603662566024
0.06900000000000005,-0.0012064350123297582,0.001521171395300081,0.019555064224872302,-0.0467786217763931,0.05861947908582294,0.5013543419718226,-0.08401715291933873,-0.06534151205594374,0.02163833069315352,-3.8497794810204864,3.642039796860946,10.441356300272266,0.0,25600.03061647108,24848.229601326653,24828.124027146165,-0.05530805495326309,-0.07858457646195215,0.17588010770964502
0.07000000000000005,-0.0012542065252353464,0.0015810165276547833,0.020061375874600485,-0.047771512905588294,0.05984513235470228,0.5063116497281838,-0.08408434424675826,-0.06540507764188763,0.021820566738967127,-2.1296647942204263,2.317750259197384,10.277952430903245,0.0,25547.288521324746,24796.829143072402,24775.889447524947,-0.02545677249491958,-0.05533117593069171,0.17497520595611604
0.07100000000000005,-0.0013029682549216008,0.0016420833538574328,0.02057259277351488,-0.04876172968625446,0.06106682620264951,0.5112168989143945,-0.08412151390938122,-0.06544553001514958,0.021999950849249744,-0.43943737014530604,1.0162906036849366,10.116613825522807,0.0,25494.90622514343,24745.77874064893,24724.01009062629,0.0038705972482179773,-0.03247237767371983,0.17407850926775836
0.07200000000000005,-0.0013527172078269868,0.0017043675253651904,0.02108866336381369,-0.04974895290538588,0.06228417150775765,0.5160705902988107,-0.08412918353834656,-0.06546326763234096,0.022176519069657896,1.2209395194038026,-0.2623708990598866,9.957310110966507,0.0,25442.881203765548,24695.075970268415,24672.483542470924,0.03267493491243648,-0.01000775744833116,0.17318733956574306
0.07300000000000005,-0.0014034500803142772,0.0017678643162700343,0.021609536582637083,-0.05073287248729038,0.06349679090484384,0.5208732188233905,-0.08410787412376525,-0.06545868839629095,0.022350306915736383,2.8515144592887873,-1.5182752496829683,9.800011399978121,0.0,25391.210956450792,24644.718429590677,24621.30740932693,0.060957319059159715,0.012063272457288304,0.17229916000383128
0.07400000000000005,-0.0014551632676617586,0.0018325686348536056,0.022135161856258193,-0.05171318734748146,0.06470431858357123,0.5256252736211104,-0.08405810580778243,-0.06543218949423243,0.02252134938139898,4.452347427232938,-2.751472326888493,9.644688290261222,0.0,25339.893006227565,24594.703738142503,24570.479318213387,0.08871901831965767,0.03374145594018378,0.17141157210630809
0.07500000000000005,-0.0015078528729089824,0.0018984750349416589,0.022665489094295856,-0.052689605247223804,0.06590640008805328,0.5303272380376631,-0.08398039768573452,-0.06538416724285072,0.02268968094739258,6.023509353332211,-3.9620205136266957,9.491311863152307,0.0,25288.924900203416,24545.029537692208,24519.99691734741,0.11596148394278485,0.05502768618516275,0.17052231283912533
0.07600000000000005,-0.001561514715557809,0.0019655777270596742,0.023200468683953063,-0.05366184264882661,0.06710269211801553,0.5349795896572064,-0.0838752676149942,-0.06531501693985638,0.022855335589738186,7.5650817001306585,-5.149986340655009,9.339853681959356,0.0,25238.304209838505,24495.693492580664,24469.857876537724,0.14268634269764482,0.07592299911614282,0.169629251622041
0.07700000000000005,-0.001616144340129579,0.0020338705893912555,0.023740051484285006,-0.05462962457176995,0.06829286233158152,0.5395828003319422,-0.08374323203114455,-0.06522513272177921,0.023018346788142893,9.077156060929164,-6.315444145718242,9.1902857898144,0.0,25188.028531182572,24446.693290010433,24420.059887527692,0.1688953900901779,0.09642856716361316,0.16873038728590473
0.07800000000000006,-0.0016717370245793197,0.0021033471785409973,0.024284188820500315,-0.055592684449740706,0.06947658914974195,0.5441373362153094,-0.08358480577116398,-0.06511490742771063,0.023178747534374402,10.55983377439213,-7.458475746974517,9.042580707227236,0.0,25138.09548507575,24398.026640294298,24370.60066429086,0.1945905838599838,0.1165456933216562,0.16782384498509373
0.07900000000000006,-0.0017282877885679668,0.002174000740103557,0.024832832478298893,-0.05655076398864708,0.0706535615625598,0.5486436577985783,-0.08340050190333753,-0.06498473246874578,0.023336570340592836,12.013225553798247,-8.579170129365316,8.896711429211305,0.0,25088.502717314157,24349.691277064678,24321.477943281257,0.21977403772826876,0.13627580546970952,0.1669078730691922
0.08000000000000006,-0.0017857914015936402,0.0022458242190407153,0.025385934698249537,-0.057503613025673375,0.07182347893715814,0.5531022199506448,-0.08319083156363903,-0.0648349977028996,0.023491847247632383,13.43745112953883,-9.677623142954157,8.752651422122035,0.0,25039.247898780835,24301.684957445414,24272.689483641087,0.2444480153726246,0.15562045093955854,0.16598083992266766
0.08100000000000006,-0.0018442423909830708,0.0023188102698682472,0.02594344817021036,-0.058450989389430566,0.07298605082753197,0.5575134719608232,-0.08295630379835275,-0.06466609131528785,0.023644609833227775,14.8326389037143,-10.753937212284024,8.610374620139421,0.0,24990.32872554325,24254.005462187313,24224.233067367975,0.2686149246084418,0.17458129130883965,0.16504123077726263
0.08200000000000006,-0.001903635049744323,0.002392951266654468,0.026505326027794807,-0.05939265876125199,0.07414099678622076,0.5618778575844471,-0.08269742541272354,-0.06447839970338075,0.023794889220179364,16.198925615812453,-11.808221056034016,8.469855421384096,0.0,24941.742918918146,24206.65059576903,24176.106499443864,0.29227731175916594,0.1931600974062972,0.16408764450272884
0.08300000000000006,-0.0019639634442820014,0.002468239312832342,0.027071521842885898,-0.06032839453767842,0.07528804617787399,0.5661958150910898,-0.08241470082544196,-0.06427230736714963,0.023942716084450408,17.536456018626406,-12.84058941628391,8.331068683827482,0.0,24893.488225505007,24159.618186464504,24128.30760792755,0.31543785620085196,0.21135874451432957,0.16311879038414645
0.08400000000000006,-0.002025221421976173,0.0025446662508270806,0.027641989620201122,-0.06125797769417151,0.07642693799473825,0.5704677773152257,-0.08210863192878576,-0.06404819680393874,0.024088120663192988,18.845382563710952,-13.851162796845014,8.193989720841445,0.0,24845.56241718912,24112.906086378644,24080.834244012847,0.3380993650685912,0.22917920775747447,0.16213348488844304
0.08500000000000006,-0.0020874026186262634,0.002622223671501171,0.028216683791910276,-0.06218119665009032,0.07755742067409055,0.5746941717091542,-0.08177971795425107,-0.06380644840790405,0.024231132762696242,20.125865095741645,-14.840067210134373,8.058594296536816,0.0,24797.963291115597,24066.512171452436,24033.684282054048,0.360264768113883,0.24662355766542293,0.16113064842767244
0.08600000000000006,-0.002150500465761225,0.002700902923418811,0.028795559212308298,-0.06309784713496137,0.07867925191763975,0.5788754203980201,-0.08142845534351817,-0.06354744037386995,0.024371781766253247,21.37807055529116,-15.807433932174785,7.924858620769127,0.0,24750.688669635292,24020.434341439028,23986.855619560556,0.38193711270435055,0.2636939559014385,0.16010930212172525
0.08700000000000006,-0.0022145081978172934,0.0027806951219317257,0.029378571152545063,-0.06400773205606876,0.07979219851291466,0.5830119402367648,-0.08105533762460469,-0.06327154860546202,0.024510096641940725,22.60217268951067,-16.75339926533443,7.792759344049835,0.0,24703.736400224177,23974.67051985207,23940.34617716218,0.4031195589571469,0.28039265114714734,0.159068564569111
0.08800000000000006,-0.002279418859184681,0.0028615911580883806,0.029965675295413913,-0.06491066136738757,0.08089603615665497,0.5871041428688504,-0.08066085529306839,-0.06297914662738074,0.024646105950309947,23.798351770390276,-17.678104308455275,7.66227355211811,0.0,24657.104355377043,23929.218653887736,23894.153898546836,0.42381537500011507,0.2967219751360425,0.15800764862581218
0.08900000000000007,-0.0023452253111245613,0.0029435817073685993,0.030556827730200516,-0.0658064519398804,0.08199054928021841,0.5911524347866044,-0.08024549569812726,-0.06267060550168721,0.02477983785198289,24.966794320231884,-18.581694734070112,7.533378760366884,0.0,24610.790432476988,23884.076714321684,23848.276750372068,0.4440279323545552,0.31268433882836194,0.1569258581995996
0.09000000000000007,-0.0024119202385577353,0.003026657238245615,0.031151984947593556,-0.066694927433174,0.08307553087701572,0.5951572173930387,-0.079809742933571,-0.06234629374797719,0.0249113201151511,26.1076928440357,-19.464320572437057,7.406052908078313,0.0,24564.79255364183,23839.242695382305,23802.712722151904,0.4637607014343751,0.3282822287209191,0.15582258506282187
0.09100000000000007,-0.0024794961567263657,0.0031108080205775974,0.03175110383465855,-0.06757591816863022,0.08415078233198238,0.5991188870649995,-0.07935407773334321,-0.062006577267324496,0.025040580122973968,27.221245568552238,-20.326136002128592,7.280274352520567,0.0,24519.108665548672,23794.71461460152,23757.459826120466,0.48301724715739797,0.34351820328554017,0.15469730568810292
0.09200000000000007,-0.002547945417730189,0.003196024133830692,0.03235414166987607,-0.0684492610038231,0.08521611325309474,0.6030378352175129,-0.07887897737167807,-0.06165181926987919,0.02516764488087395,28.307656187769833,-21.167299146965473,7.156021862896203,0.0,24473.73673923778,23750.490512644385,23712.51609707372,0.5018012246648531,0.35839488953084814,0.15354957811013037
0.09300000000000007,-0.0026172602169386204,0.003282295475135628,0.03296105611824526,-0.06931479920843145,0.08627134130493581,0.6069144483691948,-0.07838491556767893,-0.06128238020601006,0.025292541023726186,29.367133614637826,-21.987971879046757,7.033274614051549,0.0,24428.674769896945,23706.56845311877,23667.879592190555,0.520116375145523,0.3729149796816353,0.15237903881501325
0.09400000000000007,-0.002687432599280175,0.003369611767179943,0.033571805226453866,-0.07017238234155446,0.08731629204431503,0.6107491082085992,-0.0778723623942304,-0.06089861770088477,0.02541529482293832,30.399891738837304,-22.788319627720146,6.912012180242324,0.0,24383.920776627652,23662.946522366146,23623.548390834767,0.5379665217616422,0.3870812279712221,0.15118539966528033
0.09500000000000007,-0.0027584544654106306,0.003457962565937887,0.03418634741811525,-0.0710218661304558,0.088350798757944,0.6145421916613829,-0.07734178419113787,-0.06050088649238421,0.0255359321934215,31.40614919043537,-23.5685111942786,6.792214528649704,0.0,24339.472802193908,23619.6228292349,23579.520594338806,0.555355565673418,0.4008964475420945,0.14996844485784777
0.09600000000000007,-0.0028303175777613706,0.0035473372682400567,0.034804641489073425,-0.07186311235073996,0.08937470230216978,0.6182940709581723,-0.07679364348239222,-0.0600895383722509,0.025654478700448232,32.38612910928694,-24.328718572223444,6.673862012899071,0.0,24295.32891275508,23576.595504837056,23535.79432577081,0.5722874821601389,0.4143635074503539,0.14872802792183393
0.09700000000000007,-0.0029030135664693335,0.003637725119184822,0.035426646602776446,-0.07269598870796305,0.09038785094476508,0.6220051137030197,-0.07622839889745918,-0.05966492213037451,0.025770959566397095,33.34005892002055,-25.06911677291012,6.5569353663925405,0.0,24251.48719758378,23533.86270228976,23492.367729685808,0.5887663168348795,0.42748532976977266,0.14746406875519824
0.09800000000000007,-0.002976533935190012,0.003729115219393596,0.03605232228571879,-0.07352036872067884,0.09139010020877422,0.625675682942343,-0.07564650509649591,-0.0592273835021203,0.025885399677381106,34.268170112508024,-25.789883656450446,6.441415695731454,0.0,24207.94576876978,23491.42259644231,23449.238971862535,0.6047961819514224,0.44026488679169423,0.14617655070713909
0.09900000000000007,-0.003050870066794932,0.0038214965321120083,0.036681628422953035,-0.07433613160491949,0.0923813127184122,0.6293061372342474,-0.07504841269939913,-0.058777265118608965,0.02599782358976126,35.170698027687656,-26.491199767678566,6.327284473915576,0.0,24164.70276091104,23449.273383590087,23406.406239026517,0.6203812528008582,0.4527051983167214,0.14486551770266942
0.10000000000000007,-0.003126013228955041,0.003914857890159022,0.03731452525367117,-0.07514316216010922,0.0933613580470134,0.632896830718132,-0.0744345682185913,-0.058314906459859414,0.026108255536541405,36.04788164862435,-27.173248177090507,6.214523533646529,0.0,24121.75633079295,23407.41328117621,23363.867738560955,0.6355257641962466,0.46480932903512895,0.1435310714168736
0.10100000000000008,-0.0032019545796114495,0.004009188002726047,0.037950973366855656,-0.07594135065640822,0.09433011256702548,0.636448113184487,-0.07380541399545357,-0.05784064381070764,0.02621671943364621,36.899963396720395,-27.83621432655471,6.103115060453133,0.0,24079.104657056552,23365.84052748191,23321.62169820594,0.6502340070436146,0.47658038599186503,0.14217336849543472
0.10200000000000008,-0.0032786851723349323,0.00410447546202809,0.03859093369700045,-0.076730592723483,0.09528745930204292,0.639960330144796,-0.0731613881403154,-0.05735481021941844,0.026323238886079167,37.727188932947676,-28.48028587972229,5.9930415859579655,0.0,24036.745939856977,23324.55338130668,23279.66636574742,0.6645103249974335,0.4880215161335595,0.14079261782848107
0.10300000000000008,-0.003356195961575631,0.004200708749808964,0.039234367519901905,-0.07751078924069854,0.09623328778087428,0.6434338229014558,-0.0725029244759135,-0.056857735458908036,0.026427837193963077,38.52980696404452,-29.1056525769592,5.884285981013024,0.0,23994.678400512686,23283.55012163901,23238.000008696486,0.6783591111993839,0.499135903933946,0.1393890778742275
0.10400000000000008,-0.003434477807804358,0.0042978762437026,0.03988123644851954,-0.07828184622872707,0.09716749389363594,0.6468689286176363,-0.07183045248423309,-0.05634974599049852,0.0265305373584607,39.30806905354798,-29.712506094694866,5.776831448841241,0.0,23952.900281146747,23242.829047318726,23196.620913960112,0.6917848050983629,0.5099267690948902,0.13796305403593578
0.10500000000000008,-0.003513521482546925,0.004395966223452464,0.040531502428906546,-0.07904367474256706,0.09808997974986483,0.6502659803870041,-0.07114439725664738,-0.055831164930127214,0.026631362087575734,40.0622294375989,-30.30103990907373,5.670661518264039,0.0,23911.409844320726,23202.388476691605,23155.527387504226,0.7047918893507956,0.5203973643202144,0.13651489609458167
0.10600000000000008,-0.003593317673312891,0.004494966876991106,0.04118512773620978,-0.07979619076596617,0.09900065353864179,0.6536253073032358,-0.07044517944727188,-0.055302312016935674,0.026730333801835583,40.79254484542457,-30.8714491637709,5.565760036859513,0.0,23870.205372662214,23162.22674725737,23114.717754009784,0.7173848867995051,0.5305509731594309,0.13504499569535255
0.10700000000000008,-0.003673856988420132,0.004594866306381822,0.04184207497073904,-0.08053931510724062,0.0998994293907165,0.6569472345292554,-0.06973321522945178,-0.054763503584165825,0.0268274746398547,41.499274324412305,-31.423930541873165,5.462111164178338,0.0,23829.285168486702,23122.34221531163,23074.190356522893,0.7295683575298274,0.5403909079188904,0.13355378389093175
0.10800000000000008,-0.0037551299617166155,0.0046956525336244465,0.04250230705410517,-0.08127297329648342,0.1007862272426245,0.6602320833661302,-0.06900891625530244,-0.054215052532292134,0.026922806463779553,42.18267906970288,-31.9586821417032,5.359699364983279,0.0,23788.64755341459,23082.73325558264,23033.943556099563,0.7413468960017683,0.5499205076376998,0.1320417287415694
0.10900000000000008,-0.003837127057200769,0.004797313506327233,0.04316578722542673,-0.08199709548415333,0.10166097270278628,0.6634801713215631,-0.06827268961822403,-0.0536572683043211,0.02701635086461556,42.84302225821162,-32.47590335648643,5.25850940256183,0.0,23748.290867984128,23043.39826086365,22993.975731445993,0.7527251282567108,0.5591431361261011,0.13050933297330403
0.11000000000000008,-0.003919838673541805,0.00489983710324681,0.043832479037604656,-0.08271161634103609,0.10252359691957776,0.6666918121779266,-0.06752493781831302,-0.05309045686319093,0.027108129167437343,43.480568887015146,-32.97579475774569,5.158526331998871,0.0,23708.21347126086,23004.33564164153,22954.285278555006,0.7637077091975478,0.5680621800639916,0.1289571316927436
0.11100000000000008,-0.004003255148501374,0.005003211139698171,0.044502346353664436,-0.08341647495956907,0.10337403645136109,0.6698673160597818,-0.06676605873059441,-0.05251492067120638,0.02719816243648155,44.095585616008876,-33.45855798233187,5.059735493591768,0.0,23668.413740444514,22965.543825722332,22914.87061033943,0.7742993199408332,0.5766810471573638,0.12738569016187284
0.11200000000000009,-0.004087366763257895,0.0051074233728366355,0.04517535334316527,-0.08411161475652029,0.10421223313846441,0.6730069895008337,-0.065996445576,-0.05193095867144526,0.02728647148012475,44.68834061477881,-33.92439562297308,4.962122506218504,0.0,23628.890070473703,22927.021257854547,22875.73015626298,0.7845046652398453,0.5850031643504957,0.12579560162976122
0.11300000000000009,-0.004172163746634907,0.005212461506813734,0.045851464478675545,-0.08479698337701258,0.10503813397709844,0.6761111355102747,-0.0652164868950194,-0.05133886627107523,0.027373076855745575,45.25910341359699,-34.37351112226774,4.8656732609297055,0.0,23589.640873629334,22888.766399350512,22836.862361969426,0.7943284709773025,0.593031976091955,0.12418748522600254
0.11400000000000009,-0.00425763627923479,0.005318313197808931,0.046530644532314015,-0.08547253259988322,0.1058516909951978,0.6791800536384712,-0.06442656652395153,-0.05073893532652077,0.02745799887447505,45.808144758480815,-34.80610867000018,4.770373914373538,0.0,23550.66457913707,22850.777727706878,22798.26568891044,0.8037754817263892,0.6007709426525056,0.12256198390906548
0.11500000000000009,-0.00434377449747916,0.005424966058939106,0.04721285857235597,-0.0861382182443696,0.10665286113017422,0.6822140400419539,-0.06362706357368585,-0.05013145413042232,0.027541257605832117,46.33573647024124,-35.222393103709514,4.676210882520331,0.0,23511.9596327697,22813.053736224294,22759.938613972983,0.8128504583792734,0.6082235384929298,0.12091976247762659
0.11600000000000009,-0.004430568497557271,0.0055324076650476745,0.04789807195990364,-0.08679400007811093,0.10744160610856875,0.6852133875476708,-0.06281835241094372,-0.049516707400330845,0.027622872882249686,46.84215130743778,-35.62256981240892,4.583170834307352,0.0,23473.524496449772,22775.592933627344,22721.87962910656,0.8215581758413963,0.6153932506802393,0.11926150563812143
0.11700000000000009,-0.0045180083392837266,0.005640625557375264,0.04858625034562011,-0.08743984172645619,0.10821789232758956,0.6881783857164704,-0.06200080264191156,-0.04889497626908277,0.027702864303489724,47.32766283318867,-36.00684464336388,4.491240685416194,0.0,23435.357647853023,22738.393843684822,22684.087240950925,0.8299034207908884,0.6222835773502813,0.11758791613198127
0.11800000000000009,-0.004606084049866795,0.005749607248113786,0.04927735966652589,-0.0880757105830683,0.10898169073852175,0.6911093209057789,-0.06117477909819867,-0.04826653827680199,0.027781251240949763,47.792545285761506,-36.37542381186553,4.400407592165344,0.0,23397.457580013255,22701.45500483117,22646.55997046495,0.837890989501843,0.6288980262155425,0.11589971292198697
0.11900000000000009,-0.0046947856275886095,0.005859340224845781,0.04997136614285733,-0.08870157772181449,0.10973297673199514,0.6940064763314442,-0.06034064182505364,-0.04763166736447659,0.027858052841862803,48.23707345285896,-36.72851381388142,4.310658945383671,0.0,23359.822800928992,22664.774969789425,22609.296352556717,0.8455256857299018,0.6352401131161622,0.11419762943501155
0.12000000000000009,-0.004784103045398542,0.005969811954870877,0.050668236274986046,-0.08931741780993267,0.11047173002509608,0.6968701321287162,-0.0594987460717749,-0.04699063386906014,0.027933288033390295,48.66152254955866,-37.06632134154682,4.2219823645146235,0.0,23322.45183317238,22628.35230519607,22572.29493571577,0.8528123186597043,0.6413133606131951,0.11248241186513042
0.1210000000000001,-0.004874026254421006,0.006081009889421185,0.051367936840398386,-0.08992320902246392,0.11119793455030853,0.6997005654123407,-0.05864944228425163,-0.04634370452004791,0.02800697552661221,49.066168099825774,-37.38905320137721,4.134365691673525,0.0,23285.343213500855,22592.1855912284,22535.55428164758,0.8597557009125939,0.6471212966223239,0.11075481753175609
0.1220000000000001,-0.0049645451873789465,0.0061929214677674555,0.05207043489073413,-0.09051893295794056,0.11191157834627004,0.7024980503357423,-0.05779307609957266,-0.04569114243748055,0.028079133820413403,49.45128582153897,-37.69691623515083,4.04779698590538,0.0,23248.495492471895,22556.273421234622,22499.07296491089,0.8663606466138112,0.6526674530868727,0.1090156132966058
0.1230000000000001,-0.005055649761934266,0.006305534121217783,0.05277569774888341,-0.09110457455531998,0.1126126534503275,0.7052628581492757,-0.05692998834264202,-0.04503320713132866,0.028149781205269755,49.81715151494296,-37.99011724338431,3.962264517447482,0.0,23211.90723406127,22520.614401367242,22462.8495725581,0.8726319695175376,0.6579553646890249,0.10726557403552306
0.1240000000000001,-0.00514732988394642,0.00641883527701066,0.05348369300614094,-0.09168012201215404,0.11330115579287774,0.7079952572575278,-0.05606051502474138,-0.04437015450221293,0.02821893576693416,50.16404095450962,-38.26886291132572,3.877756762176264,0.0,23175.57701528513,22485.207150219918,22426.882703779345,0.8785744811896777,0.6629885675977888,0.10550548116765412
0.12500000000000008,-0.005239575450650404,0.006532812362104138,0.054194388519416596,-0.09224556670398369,0.1139770850934775,0.7106955132756531,-0.05518498734397991,-0.043702236843415954,0.02828661539002561,50.49222978409877,-38.53335973738769,3.794262396080606,0.0,23139.50342582633,22450.05029846831,22391.170969550265,0.8841929892463914,0.6677705982526152,0.10373612123856901
0.12600000000000008,-0.005332376353755353,0.0066474528068628455,0.05490775240850133,-0.09280090310494896,0.11464044475870745,0.7133638890847293,-0.054303731687573846,-0.04302970284414312,0.028352837761521827,50.801993415370845,-38.78381396398055,3.71177028989161,0.0,23103.68506766524,22415.142488515176,22355.712992284134,0.8894922956476974,0.6723049921819299,0.10195828455891842
0.12700000000000009,-0.005425722482464957,0.00676274404864462,0.055623753053387445,-0.09334612870960403,0.11529124178177452,0.7160006448861189,-0.05341706963589914,-0.04235279759399071,0.02841762037415814,51.09360692940721,-39.02043151064583,3.630269503736536,0.0,23068.120554715326,22380.482374139916,22320.507405488337,0.8944771950453085,0.6765952828550962,0.10017276389555718
0.12800000000000009,-0.005519603726420884,0.006878673535288457,0.05634235909164227,-0.09388124395592748,0.11592948664383666,0.718606038254828,-0.052525317968261195,-0.04167176258858099,0.028480980529733083,51.36734498144629,-39.24341790945718,3.54974928201597,0.0,23032.80851246395,22346.068620153022,22285.552853425783,0.8991524731832985,0.680645000567173,0.09838035321786265
0.1290000000000001,-0.0056140099785704015,0.006995228728505491,0.05706353941583412,-0.09440625214951756,0.11655519321703416,0.7211803241918514,-0.05162878867032717,-0.040986835736324854,0.028542935342324566,51.62348170870002,-39.45297824260621,3.4701990482899174,0.0,22997.74757761836,22311.89990205556,22250.847990781214,0.9035229053508493,0.6844576713553945,0.09658184649470059
0.1300000000000001,-0.005708931137959364,0.007112397107174703,0.05778726317100962,-0.09492115938896253,0.11716837866921133,0.7237237551754986,-0.05072778894316729,-0.04029825136627369,0.0286035017414168,51.862290641183066,-39.64931708212539,3.3916084002359184,0.0,22962.936397757345,22277.974905704043,22216.39148233288,0.9075932548859963,0.6880368159466306,0.09477803654232275
0.1310000000000001,-0.00580435711245174,0.007230166170545015,0.05851349975222132,-0.09542597449237619,0.11776906337031234,0.7262365812116945,-0.049822621213852405,-0.039606240237023374,0.028662696474939214,52.08404461548408,-39.83263843169006,3.3139671048683375,0.0,22928.373630988757,22244.292326980725,22182.182002629757,0.9113682717293087,0.6913859487348274,0.09296971392564046
0.1320000000000001,-0.005900277821376828,0.00734852344134545,0.05924221880210457,-0.09592070892508849,0.11835727080043477,0.7287190498832503,-0.04891358314755658,-0.03891102954663395,0.028720536112221952,52.289015691441605,-40.00314567043704,3.2372650937069496,0.0,22894.057945612934,22210.850871469833,22148.2182356744,0.9148526910266587,0.6945085767878193,0.09115766590656449
0.1330000000000001,-0.00599668319810531,0.007467456468804974,0.05997339020850267,-0.09640537672848153,0.11893302745952439,0.7311714063981016,-0.04800096766111395,-0.03821284294352991,0.028777037046867023,52.47747507165428,-40.1610414987535,3.161492458112218,0.0,22859.988019792392,22177.649254139607,22114.498874611767,0.9180512317800518,0.6974081988826892,0.08934267544231034
0.1340000000000001,-0.006093563192555271,0.007586952831583668,0.060706984102139185,-0.09687999444996102,0.11949636277869455,0.733593893636515,-0.04708506293798033,-0.03751190053834658,0.02883221549953805,52.64969302376254,-40.30652788597788,3.086639444725616,0.0,22826.16254122791,22144.686199030526,22081.022621424112,0.9209685955454048,0.7000883045689436,0.08752552023167937
0.1350000000000001,-0.0061909077736293245,0.0077070001406168214,0.06144297085433644,-0.09734458107405332,0.1200473090331535,0.7359867521972595,-0.046166152444551384,-0.03680841891668936,0.028886087520670442,52.80593880546966,-40.43980601998039,3.012696451057611,0.0,22792.58020684108,22111.960438949834,22047.788186632213,0.9236094651767736,0.7025523732591045,0.08570697180914522
0.1360000000000001,-0.006288706931583943,0.007827586041873544,0.06218132107477919,-0.09779915795461828,0.12058590125672275,0.7383502204427478,-0.0452445149477893,-0.03610261115277288,0.028938668993104547,52.94648059221721,-40.561076258531514,2.9396540210673345,0.0,22759.239722463568,22079.47071517244,22014.794289002755,0.9259785036154773,0.704803873345479,0.08388779468305074
0.1370000000000001,-0.006386950680332111,0.007948698219031474,0.06292200560932233,-0.09824374874816831,0.12111217715792964,0.740684534543147,-0.04432042453411183,-0.035394686823909,0.028989975634641663,53.07158540748411,-40.67053808246913,2.8675028409751953,0.0,22726.13980253318,22047.215777148453,21982.03965526256,0.9280803527237687,0.7068462613433156,0.08206874552121235
0.1380000000000001,-0.006485629059680394,0.00807032439606913,0.0636649955378418,-0.09867837934828362,0.12162617703765709,0.7429899285194652,-0.043394150629497856,-0.034684852025812174,0.029040023000526972,53.18151905563329,-40.768390050567305,2.796233735085647,0.0,22693.27916979681,22015.194382217323,21949.523019819142,0.9299196321616122,0.7086829810590721,0.0802505723790432
0.1390000000000001,-0.006584732137501508,0.008192452339777464,0.06441026217212742,-0.09910307782111423,0.1221279437083334,0.7452666342856162,-0.04246595802076495,-0.033973309388692474,0.029088826485859556,53.27654605728091,-40.854829756099335,2.725837661808043,0.0,22660.656555020374,21983.405295328757,21917.243124488225,0.931500938306275,0.71031746278375,0.07843401397252592
0.1400000000000001,-0.006684250011843466,0.008315069862192109,0.0651577770538169,-0.09951787434195883,0.1226175224146452,0.7475148816894701,-0.041536106877974995,-0.033260258094106786,0.029136401327932968,53.35692958710904,-40.93005378502304,2.656305709665697,0.0,22628.27069670586,21951.847288770554,21885.19871822792,0.9328288432132519,0.7117531225104404,0.0766197989913735
0.1410000000000001,-0.006784172812976378,0.008438164822947866,0.0659075119523698,-0.09992280113291102,0.12309496075575609,0.7497348985528953,-0.040604852777925166,-0.032545893892539764,0.02918276260850616,53.42293141408161,-40.99425767577049,2.5876290934889714,0.0,22596.120340815538,21920.51914190332,21853.388556879894,0.9339078936179679,0.7129933611758572,0.07480864545482291
0.1420000000000001,-0.006884490705377941,0.00856172513155688,0.0666594388630806,-0.1003178924015631,0.12356030860901387,0.7519269107108004,-0.03967244672868233,-0.03183040912168661,0.02922792525600794,53.47481184401509,-41.04763588058706,2.519799150729198,0.0,22564.204240503346,21889.419640902164,21821.81140291746,0.9347426099773991,0.7140415639251863,0.07300126010795793
0.1430000000000001,-0.006985193889658699,0.008685738749612008,0.06741353000512978,-0.10070318428075782,0.12401361805512913,0.7540911420491837,-0.0387391351951198,-0.031113992725410603,0.02927190404767712,53.51282966444781,-41.090381728386156,2.4528073378066817,0.0,22532.521155853552,21858.547578505477,21790.46602520062,0.9353374855506013,0.714901099399967,0.07119833785606033
0.1440000000000001,-0.007086272604428077,0.008810193692916815,0.06816975781967198,-0.10107871476937863,0.12445494330480758,0.7562278145422004,-0.0378051601254163,-0.030396830273348947,0.029314713611638923,53.537242091757975,-41.12268738908188,2.3866452265987985,0.0,22501.069853626734,21827.9017537708,21759.35119873825,0.9356969855173679,0.7155753190485084,0.06940056123784188
0.1450000000000001,-0.0071877171281022455,0.008935078033543634,0.06892809496796024,-0.1014445236741685,0.1248843406268192,0.7583371482882572,-0.03687075897847783,-0.029679103981141118,0.029356368428920077,53.54830472049567,-41.1447438393562,2.321304500959182,0.0,22469.849107013022,21797.48097183775,21728.46570445723,0.9358255461343696,0.7160675564583903,0.06760859993465829
0.1460000000000001,-0.007289517780654813,0.00906037990182112,0.06968851432950537,-0.10180065255256791,0.12530186827748635,0.7604193615451439,-0.03593616475224396,-0.0289609927312547,0.02939688283540318,53.54627147484184,-41.156740829841226,2.256776953529823,0.0,22438.857695392784,21767.284043698084,21697.80832897877,0.9357275739274233,0.7163811267107767,0.06582311031928612
0.1470000000000001,-0.007391664925311375,0.009186087488252694,0.0704509890002696,-0.10214714465656238,0.12570758643157373,0.7624746707642164,-0.03500160601284125,-0.028242672094383987,0.029436271023725404,53.53139456220757,-41.15886685366439,2.1930544824112164,0.0,22408.094404104482,21737.309785972957,21667.37786440175,0.935407444919906,0.7165193257561518,0.06404473503567942
0.1480000000000001,-0.007494148970188905,0.009312189045367257,0.07121549229089323,-0.10248404487752975,0.1261015571145626,0.7645032906236392,-0.03406730692454654,-0.027524314351397582,0.0294745470451191,53.50392442886493,-41.15130911633034,2.130129088056732,0.0,22377.55802422,21707.55702069724,21637.173108093157,0.9348695038956403,0.7164854298110027,0.06227410261510613
0.1490000000000001,-0.0075969603698809824,0.00943867288950355,0.07198199772495394,-0.10281139969207785,0.12648384413629188,0.7665054340607027,-0.03313348728052462,-0.02680608851581166,0.029511724811198195,53.46410971760347,-41.13425350690795,2.0679928702682178,0.0,22347.24735232724,21678.02457511094,21607.192862485586,0.9341180636960957,0.7162826947752118,0.06051182712553782
0.1500000000000001,-0.007700089626989845,0.009565527402529498,0.07275047903725716,-0.1031292571088626,0.12685451302594855,0.7684813123032275,-0.032200362534304944,-0.02608816035676609,0.02954781809569214,53.41219722734534,-41.10788457049607,2.00663802523464,0.0,22317.161190319985,21648.711281457832,21577.435934881854,0.933157404550731,0.7159143556699488,0.05875850785230341
0.1510000000000001,-0.007803527293606222,0.009692741033497888,0.07352091017215723,-0.10343766661637727,0.1272136309683901,0.7704311349000683,-0.031268143831963184,-0.02537069242248116,0.029582840536128203,53.34843187469245,-41.07238548191727,1.9460568426962395,0.0,22287.29834519506,21619.615976790996,21547.90113726651,0.9319917734400738,0.7153836260953483,0.05701472901046145
0.1520000000000001,-0.007907263972737924,0.00982030230023967,0.07429326528190797,-0.10373667913170284,0.1275612667417814,0.7723551097507335,-0.03033703804497391,-0.024653844064173387,0.02961680563546422,53.273056657343965,-41.027938020632924,1.8862417031778416,0.0,22257.65762885668,21590.737502785498,21518.587286124457,0.9306253834904484,0.7146936977080985,0.055281059486958384
0.1530000000000001,-0.008011290319688134,0.009948199790896197,0.0750675187250421,-0.10402634695021021,0.12789749065652842,0.774253443134132,-0.029407247803701773,-0.023937771460409176,0.029649726763673098,53.18631261934163,-40.97472254684542,1.8271850753658962,0.0,22228.237857928027,21562.074705558054,21489.493202266414,0.9290624133996694,0.7138477397185092,0.0535580526129138
0.1540000000000001,-0.008115597043384338,0.01007642216539169,0.07584364506477856,-0.10430672369620421,0.12822237449549187,0.7761263397364643,-0.028478971531499253,-0.023222627641875566,0.029681617159281533,53.088438818119556,-40.912917978742485,1.7688795134950221,0.0,22199.03785356985,21533.62643549354,21460.61771066131,0.9273070068932414,0.7128488984065515,0.05184624596273579
0.1550000000000001,-0.008220174907658839,0.010204958156847153,0.07662161906745683,-0.10457786427449997,0.1285359914554628,0.7779740026782709,-0.0275524034793795,-0.022508562516548127,0.029712489930863097,52.97967229329113,-40.84270177088064,1.7113176548556945,0.0,22170.056441306227,21505.391547078492,21431.959640275483,0.9253632722099668,0.7117002966569446,0.05014616118108961
0.1560000000000001,-0.008325014732481761,0.010333796572937036,0.07740141570099748,-0.10483982482292178,0.12883841608988297,0.7797966335406556,-0.026627733761233955,-0.021795722895236142,0.029742358058487836,52.860248037144004,-40.764249893658224,1.654492217424759,0.0,22141.292450857272,21477.368898741304,21403.51782391865,0.9232352816164634,0.7104050335126215,0.048458303836810046
