T,Px,Py,Pz,Vx,Vy,Vz,Roll,Pitch,Yaw,R_rate,P_rate,Y_rate,T,M1,M2,M3,Wb1,Wb2,Wb3
0.0,0.0,0.0,0.0,0.0,0.0,0.0,0.0,0.0,0.0,0.0,-0.0,0.0,0.0,0.0,0.0,0.0,0.0,0.0,0.0
0.001,0.0,0.0,1.0003852788865078e-05,0.0,0.0,0.010003852788865078,0.0,0.0,0.0,-26.093994426865528,20.254084688525808,27.950759047795458,0.0,0.0,0.0,0.0,-0.4554261177458542,-0.3535004647925455,0.48783277381562584
0.002,-6.967008928417613e-09,8.97582363981335e-09,2.991633292707821e-05,-6.967008928417612e-06,8.97582363981335e-06,0.01991248013821313,-0.0004554261177458542,-0.0003535004647925455,0.00048783277381562584,-42.861609465802715,33.26569450323333,27.754807715177343,0.0,0.0,0.0,0.0,-0.7480762078822252,-0.580595897044001,0.48441277788776915
0.003,-3.2262714146283434e-08,4.1551808521602815e-08,5.964298683987399e-05,-2.5295705217865818e-05,3.2575984881789464e-05,0.029726653912795775,-0.0012035023256280794,-0.0009340963618365465,0.000972245551703395,-45.48542844973714,35.28510909726441,11.493255513546877,0.0,0.0,0.0,0.0,-0.7937995776507586,-0.6159326230676936,0.2003146469312469
0.004,-8.783799876185415e-08,1.1309897050755195e-07,9.909013823272304e-05,-5.557528461557072e-05,7.154716198594913e-05,0.03944715139284905,-0.0019973728137562927,-0.0015499376925092144,0.0011728407021877798,-33.5703690280712,26.03125377762408,-4.62731500127908,0.0,0.0,0.0,0.0,-0.5859889100188314,-0.45423356076386256,-0.08130857696460225
0.005,-1.8238689772488879e-07,2.3480600920015574e-07,0.0001481649138315799,-9.454889896303464e-05,0.00012170703869260381,0.04907477559885687,-0.0025832862844056637,-0.0020042687793509666,0.0010920788198885343,-11.168140406283863,8.641095313345021,-11.354344420560336,0.0,0.0,0.0,0.0,-0.19522797352071647,-0.1504194433382769,-0.19847129591818202
0.006,-3.186373780205875e-07,4.102070134419535e-07,0.00020677527736791832,-0.0001362504802956987,0.00017540100424179777,0.05861036353633842,-0.0027782071058203343,-0.0021550843435474885,0.0008939081253443086,14.588777631907535,-11.36949905321096,-8.773000586925946,0.0,0.0,0.0,0.0,0.25431531460664203,0.19883007640323447,-0.1526043127312846
0.007,-4.925619980472709e-07,6.341579789919061e-07,0.0002748300425334195,-0.00017392462002668329,0.00022395096554995254,0.0680547651655012,-0.0025235849023022465,-0.0019566491507665793,0.0007407903798230559,35.761928263404215,-27.82571661453004,-2.2948751960808274,0.0,0.0,0.0,0.0,0.6240770772559718,0.4857597729048301,-0.03870364493178613
0.008,-6.946706783887834e-07,8.944841380243968e-07,0.000352238847634346,-0.00020210868034151256,0.00026032615903249064,0.0774088051009265,-0.001899421507243825,-0.0014709987791161404,0.000700737251729095,46.04066028923028,-35.79530247663498,2.726969014328426,0.0,0.0,0.0,0.0,0.8036542376898468,0.6246237869984895,0.049170942849968924
0.009000000000000001,-9.129126980186155e-07,1.175702429073139e-06,0.00043891210479126916,-0.00021824201962983216,0.00028121829104874214,0.08667325715692313,-0.0010958603954045517,-0.0008462528941515794,0.0007483318396289904,42.60104004631248,-33.07409634763603,4.054074637993406,0.0,0.0,0.0,0.0,0.7436324969324535,0.5771164400356839,0.07185319033658288
0.010000000000000002,-1.1362511339562427e-06,1.4636128179195183e-06,0.0005347609542818816,-0.0002233384359376271,0.00028791038884637936,0.09584884949061251,-0.0003523319818224414,-0.0002690010157634996,0.0008190887901835726,26.86302182069502,-20.78528415820882,2.5062206778798077,0.0,0.0,0.0,0.0,0.4688851944288463,0.3627234918129887,0.044139307681120954
0.011000000000000003,-1.3578041090154238e-06,1.7493338107798691e-06,0.0006396972438835913,-0.0002215529750591811,0.00028572099286035095,0.10493628960170966,0.00011651619598376854,9.377062875986234e-05,0.0008628305927941395,3.945674658047841,-2.9348662775297263,0.16316049033661884,0.0,0.0,0.0,0.0,0.06886578002632848,0.05122207313786559,0.0028657350145522287
0.012000000000000004,-1.5766157928188051e-06,2.031581702513446e-06,0.0007536335281858764,-0.00021881168380338134,0.000282247891733577,0.11393628430228514,0.00018538120997920474,0.00014499370840850574,0.0008656782805596819,-18.99064492501367,14.895019893207952,-1.3682268424959019,0.0,0.0,0.0,0.0,-0.3314470417700915,-0.2599699199359918,-0.023849772666551416
0.013000000000000005,-1.7975691092175897e-06,2.3165707401817654e-06,0.0008764830707182951,-0.00022095331639878445,0.0002849890376683195,0.12284954253241874,-0.0001460680710394354,-0.0001149734308780272,0.0008417982172439626,-34.98278187084925,27.28806680445184,-1.6400039128324522,0.0,0.0,0.0,0.0,-0.6105605749305394,-0.4762719103111671,-0.028535176351454083
0.014000000000000005,-2.0295354568057097e-06,2.615653872640253e-06,0.0010081598418543176,-0.00023196634758812005,0.00029908313245848766,0.13167677113602244,-0.0007566327961927367,-0.0005912400431198794,0.0008131747492194462,-39.380035420180086,30.6356758349086,-1.0782857934386185,0.0,0.0,0.0,0.0,-0.687313441392403,-0.5346906572406395,-0.018897738682824183
0.015000000000000006,-2.2823890070993536e-06,2.9415025672930766e-06,0.001148578521488732,-0.00025285355029364397,0.0003258486946528238,0.1404186796344144,-0.0014439440738268678,-0.0011259334550126972,0.0007943551118464628,-31.192361477970795,24.18536549859623,-0.3439258462235134,0.0,0.0,0.0,0.0,-0.5444129582628143,-0.42210959612813165,-0.006322021093353669
0.016000000000000007,-2.563833533112148e-06,3.304036940719241e-06,0.0012976545161490281,-0.00028144452601279446,0.0003625343734261642,0.1490759946602963,-0.001988353483089703,-0.0015480477137614413,0.0007883524734471548,-13.285052651571766,10.190173778921165,0.1279336829131105,0.0,0.0,0.0,0.0,-0.2318653960149935,-0.1778551225116341,0.001976051874805762
0.017000000000000008,-2.877010374317453e-06,3.7073479640754846e-06,0.001455303983983138,-0.000313176841205305,0.0004033110233562438,0.15764946783410994,-0.002220221393160433,-0.0017258997975540084,0.000790585337438191,8.604277652921164,-6.8635513612763095,0.2433590384607043,0.0,0.0,0.0,0.0,0.15017954999999794,0.11978288748345489,0.004485590827869146
0.01800000000000001,-3.21958297642305e-06,4.1485061363271415e-06,0.001621443847114512,-0.0003425726021055969,0.0004411581722516573,0.16613986313137383,-0.002070048418361189,-0.001606108227919998,0.0007948327539238178,27.6938024980564,-21.68757929704028,0.13438303676669922,0.0,0.0,0.0,0.0,0.483352083957141,0.3785135252329372,0.0031858139451514944
0.01900000000000001,-3.584519961300068e-06,4.618545648172376e-06,0.0017959917763870768,-0.0003649369848770179,0.00047003951184523395,0.1745479292725648,-0.0015867003823730745,-0.0012275885623992877,0.0007971781803742253,38.25086332313764,-29.825870557384647,-0.011987596159059893,0.0,0.0,0.0,0.0,0.6676031706844182,0.5205589612761329,0.0008683605928467841
0.02000000000000001,-3.962275474527283e-06,5.105243299727566e-06,0.001978866154291784,-0.0003777555132272148,0.00048669765155518987,0.1828743779047071,-0.0009190968756539831,-0.0007070289188992893,0.0007969689573518503,37.305702948991375,-28.987426415678957,-0.07675896340068011,0.0,0.0,0.0,0.0,0.6511057016349961,0.5059275214637207,-0.0005369412533013929
0.02100000000000001,-4.343653126431643e-06,5.596782494165594e-06,0.002169986037256251,-0.0003813776519043599,0.0004915391944380273,0.19111988296446727,-0.0002679895294231255,-0.000201102886266113,0.0007956292607100905,25.47431535038741,-19.681146756164132,-0.054186838672601774,0.0,0.0,0.0,0.0,0.44461000889100577,0.3435015356041855,-0.0006300276320985176
0.022000000000000013,-4.7224593179394136e-06,6.085159124854295e-06,0.0023692711343027847,-0.0003788061915077709,0.0004883766306887006,0.19928509704653358,0.00017662114813246773,0.00014239792519715267,0.0007946835219640067,6.665706491320839,-4.979720634106393,-0.02299961471490524,0.0,0.0,0.0,0.0,0.11633844451858782,0.08691262534978422,-0.000378127335636691
0.023000000000000013,-5.0971492994877166e-06,6.568307678082772e-06,0.0025766418020984005,-0.00037468998154830286,0.0004831485532284773,0.20737066779561567,0.00029295967337757524,0.00022931044609180904,0.0007942821029605415,-13.204320051244384,10.490644909568168,-0.06851584699481053,0.0,0.0,0.0,0.0,-0.23045869009802067,-0.18309650268205574,-0.0011634884115210298
0.024000000000000014,-5.471004859019833e-06,7.050352314002695e-06,0.0027920190453143193,-0.0003738555595321164,0.00048204463591992365,0.2153772432159189,6.250081299625438e-05,4.6214151762261735e-05,0.0007930862758406894,-28.071892493066947,22.004706741938218,-0.20670992231786722,0.0,0.0,0.0,0.0,-0.4899461239708455,-0.3840556240325118,-0.003495255987559176
0.025000000000000015,-5.85084523848387e-06,7.539978320846217e-06,0.0030153245155482697,-0.00037984037946403706,0.0004896260068435221,0.2233054702339503,-0.00042744613827364335,-0.0003378404318203544,0.0007894785070997009,-33.57395954160294,26.180498611715585,-0.36625388379402796,0.0,0.0,0.0,0.0,-0.5859758415159435,-0.45693629922197215,-0.006363777285855576
0.026000000000000016,-6.244717614211149e-06,8.047488839209874e-06,0.0032464805130996456,-0.00039387237572727874,0.0005075105183636559,0.2311559975513761,-0.0010134222752059808,-0.0007947763324085958,0.0007830861709292784,-28.32522169125247,21.96991494794418,-0.4435763485020365,0.0,0.0,0.0,0.0,-0.4943709953855715,-0.38344400796368394,-0.007905769701210374
0.027000000000000017,-6.659306067358334e-06,8.581488329878167e-06,0.0034854099983340674,-0.00041458845314718565,0.0005339994906682935,0.2389294852344216,-0.0015077906550756532,-0.0011782236846333404,0.0007753443031639441,-14.251203536513483,10.909097099784972,-0.3844949543571476,0.0,0.0,0.0,0.0,-0.2487357575913061,-0.19039276426594134,-0.006903652571793373
0.028000000000000018,-7.097855324288541e-06,9.146211265149967e-06,0.003732036609472262,-0.0004385492569302072,0.0005647229352717997,0.24662661113819428,-0.0017565210791596734,-0.0013686233474443526,0.0007686336002531066,4.096244061731327,-3.42556166027446,-0.222590063546461,0.0,0.0,0.0,0.0,0.07148836852759702,0.059793119394748656,-0.003794775635640235
0.02900000000000002,-7.559219103877763e-06,9.740280138728138e-06,0.0039862846729885075,-0.0004613637795892218,0.0005940688735781716,0.2542480635162457,-0.001685028133317196,-0.0013088360177424799,0.0007647486707619974,21.002297118110857,-16.566802313339316,-0.045707102807401735,0.0,0.0,0.0,0.0,0.366558143388675,0.2891462020794998,-0.00028984799780573667
0.03000000000000002,-8.038278612570243e-06,1.0357213984516215e-05,0.004248079194540225,-0.00047905950869248044,0.000616933845788077,0.26179452155171795,-0.0013184688981240451,-0.0010196907708476955,0.0007639509313264606,31.362453252810713,-24.543568463568672,0.07187224867634798,0.0,0.0,0.0,0.0,0.547379712577444,0.42836335803499936,0.001976213079331046
0.03100000000000002,-8.527551969653843e-06,1.0987466092019974e-05,0.004517345832101006,-0.0004892733570836007,0.0006302521075037579,0.26926663756078123,-0.0007710908273596926,-0.0005913246909697762,0.000765205338706675,32.21685268304723,-25.07595470032109,0.1088147631289932,0.0,0.0,0.0,0.0,0.5622920905209363,0.43765508819568044,0.0024762115110092964
0.03200000000000002,-9.019461139354462e-06,1.1621314909745993e-05,0.004794010865414313,-0.0004919091697006195,0.000633848817726019,0.2766650333133071,-0.0002088006734105493,-0.0001536667183682252,0.0007671045145980537,23.586051246376282,-18.219249998549788,0.08236868306424801,0.0,0.0,0.0,0.0,0.41165510188449567,0.31798469666096396,0.0016828000274813348
0.03300000000000002,-9.508543873816537e-06,1.2251699661573282e-05,0.0050780011754926494,-0.0004890827344620743,0.0006303847518272888,0.28399031007833697,0.00020285357838282917,0.0001643191813504407,0.0007685421193180565,8.374850591996893,-6.277218124018464,0.011175921134040537,0.0,0.0,0.0,0.0,0.14616874716665273,0.1095580810137887,0.00021793242410694802
0.03400000000000002,-9.992941938953663e-06,1.2876143890157327e-05,0.005369244236887734,-0.000484398065137126,0.0006244442285840462,0.291243061395084,0.00034902229557577126,0.00027387730548042465,0.0007687371759387887,-8.59859726972231,6.966965705811216,-0.09845312865293061,0.0,0.0,0.0,0.0,-0.15007355105486558,-0.12159683650775108,-0.0016936649122953895
0.035000000000000024,-1.0474741890378905e-05,1.3497219421634136e-05,0.005667668116223794,-0.0004817999514252419,0.0006210755314768094,0.2984238793360603,0.000198948462166122,0.0001522808150404883,0.0007670188446849055,-22.126489158274403,17.447392537997917,-0.23301168959889576,0.0,0.0,0.0,0.0,-0.3861789739087046,-0.30451584653968383,-0.0039605384502010565
0.036000000000000025,-1.095910891080921e-05,1.4121466499380604e-05,0.005973201471412377,-0.00048436702043030483,0.0006242470777464678,0.30553335518858227,-0.00018723162555259507,-0.00015223363063546523,0.0007629520235057697,-28.207406725033586,22.062307126736886,-0.351857491249788,0.0,0.0,0.0,0.0,-0.49231118563362375,-0.38506111408409127,-0.0060644644529475045
0.037000000000000026,-1.1452522596006213e-05,1.4757156745864795e-05,0.00628577355303574,-0.0004934136851970025,0.0006356902464841912,0.31257208162336275,-0.000679543746353622,-0.0005372935305832338,0.0007568109517856538,-25.22684060567516,19.58966624500714,-0.4001128065359336,0.0,0.0,0.0,0.0,-0.44029249153578726,-0.3419028618573876,-0.007047300924284627
0.03800000000000003,-1.196068414197057e-05,1.5411621188557436e-05,0.006605314212155016,-0.0005081615459643576,0.0006544644426926404,0.31954065911927554,-0.0011198351747984542,-0.0008791977059254025,0.0007498276659322066,-14.375507011210058,11.002394164839338,-0.34803973941034744,0.0,0.0,0.0,0.0,-0.2509031927459689,-0.19202383159496242,-0.006204928520219255
0.03900000000000003,-1.248674219258438e-05,1.6088969395754775e-05,0.006931753913013954,-0.0005260580506138108,0.0006773482071973393,0.3264397008589385,-0.001370735103787599,-0.0010712257097040606,0.000743753226551713,0.7987819940478651,-0.8944327959336098,-0.2178046447423749,0.0,0.0,0.0,0.0,0.013938033612863165,0.015615044386705884,-0.0037839228079405984
0.04000000000000003,-1.303036303699081e-05,1.678887533294421e-05,0.00726502374139469,-0.0005436208444064297,0.000699905937189432,0.3332698283807364,-0.0013567937279858181,-0.0010556149124772006,0.000739951818374822,15.542808409722209,-12.373447929716253,-0.0695834602571093,0.0,0.0,0.0,0.0,0.27127188079526876,0.21595886801702555,-0.0009184383437741417
0.04100000000000003,-1.3587894502024875e-05,1.750675626554288e-05,0.007605055399263875,-0.0005575314650340647,0.0007178809325986698,0.34003165786918504,-0.0010855205462295017,-0.0008396575062795762,0.0007387373578884048,25.38097016564096,-19.948298303875323,0.039713330530861984,0.0,0.0,0.0,0.0,0.442982228417398,0.34816222467605107,0.001165513239129723
0.04200000000000003,-1.4153531623256676e-05,1.823523639430631e-05,0.007951781185244557,-0.0005656371212318003,0.0007284801287634322,0.3467257859806829,-0.0006425390494886165,-0.0004914940207069514,0.0007394304862631012,27.4681140029989,-21.428225579605847,0.08630273587544113,0.0,0.0,0.0,0.0,0.47941029341364616,0.3739912337931628,0.0019122425788395958
0.04300000000000003,-1.4721091960579338e-05,1.896640190769387e-05,0.008305133970082349,-0.0005675603373226621,0.0007311655133875571,0.35335278483779065,-0.0001631300208231261,-0.00011750093148275913,0.0007409367531576067,21.404602182084204,-16.545703117401313,0.07560955862242998,0.0,0.0,0.0,0.0,0.3735814317499837,0.28877608892708917,0.0015051857961907444
0.04400000000000003,-1.5285838632773276e-05,1.9694133518796142e-05,0.008665047177788252,-0.0005647466721939375,0.0007277316111022712,0.3599132077059024,0.0002104507623338061,0.00017127606497338365,0.0007422563889015477,9.282169208809098,-6.9788873089421966,0.0193938397577026,0.0,0.0,0.0,0.0,0.1620044541934181,0.1218045048287068,0.000358356332128551
0.04500000000000003,-1.5845796279724078e-05,2.041580681589705e-05,0.009031454776361948,-0.0005599576469508031,0.0007216732971009103,0.3664075985736964,0.0003724551767547619,0.0002930806266400717,0.0007425948752599238,-5.029675074799357,4.219323880414192,-0.07525030063425772,0.0,0.0,0.0,0.0,-0.08778416541266568,-0.07364136868925322,-0.001297867636594674
0.046000000000000034,-1.6402180339896214e-05,2.1132869890493212e-05,0.009404291274781902,-0.000556384060172136,0.0007170630745961609,0.3728364984199548,0.0002846707863940211,0.00021943953271882054,0.0007412815097507405,-17.116005453411272,13.593441959628915,-0.19458212569945962,0.0,0.0,0.0,0.0,-0.2987296546205935,-0.23725156731273367,-0.0033077332701623163
0.047000000000000035,-1.6958843664551925e-05,2.185016696393371e-05,0.009783491722069002,-0.0005566633246557119,0.0007172970734404953,0.37920044728710006,-1.4059863557310589e-05,-1.781078615545415e-05,0.0007378854109917555,-23.37646391043522,18.350232374570872,-0.3044874886721901,0.0,0.0,0.0,0.0,-0.40799509654120336,-0.32027347329383077,-0.005223136791869365
0.048000000000000036,-1.752094630864101e-05,2.2574261780828586e-05,0.01016899170839938,-0.0005621026440890853,0.0007240948168948767,0.3854999863303784,-0.00042205612626803403,-0.00033808275959777326,0.0007325711017832969,-22.095074585004287,17.188899674174586,-0.35880979721205436,0.0,0.0,0.0,0.0,-0.3856319115205317,-0.3000028060310116,-0.006266630347909086
0.04900000000000004,-1.8093282038769493e-05,2.3311307675258024e-05,0.010560727370652273,-0.0005723357301284834,0.0007370458944294375,0.39173566225289314,-0.0008076879262500787,-0.0006380856537071003,0.0007263086894335333,-13.903340825472018,10.65092424664887,-0.3285747287080744,0.0,0.0,0.0,0.0,-0.24266101323826736,-0.1858912595581314,-0.0058131675874051325
0.05000000000000004,-1.8678782438043836e-05,2.4065127207562403e-05,0.010958635401548955,-0.000585500399274344,0.0007538195323043802,0.3979080308966812,-0.0010503470006815118,-0.0008239793501916197,0.0007205739785787303,-1.5145295087150863,0.8979407586484501,-0.22525957717394215,0.0,0.0,0.0,0.0,-0.0264360351928547,-0.015668842173084063,-0.003944177312746433
0.05100000000000004,-1.9277645384705895e-05,2.483607489086078e-05,0.011362653056177037,-0.0005988629466620587,0.000770947683298375,0.4040176546280823,-0.0010767805272272023,-0.0008396513729178909,0.0007166424572853947,11.16718901993586,-8.996930947682312,-0.09480745113122034,0.0,0.0,0.0,0.0,0.19490285315016861,0.15702771900435597,-0.0014897688743644721
0.05200000000000004,-1.9887327913953276e-05,2.562099686876479e-05,0.011772718148826048,-0.0006096825292473796,0.0007849219779040089,0.41006509264901037,-0.0008818763106367628,-0.0006826253053062608,0.0007149877551077314,20.271909749900836,-16.01341582253568,0.01235646965617163,0.0,0.0,0.0,0.0,0.35381175188300995,0.2794864363483114,0.0005166067970208132
0.05300000000000004,-2.0503371972195833e-05,2.6414256780412154e-05,0.012188769038706533,-0.0006160440582425568,0.0007932599116473629,0.41605088988048544,-0.000528064739833853,-0.0004031384747120572,0.0007152034161871544,23.14007753667209,-18.10234114063854,0.0679784847316972,0.0,0.0,0.0,0.0,0.40387135208133096,0.3159442860667257,0.0014650724176021868
0.05400000000000004,-2.112078019813276e-05,2.720947520078705e-05,0.012610744610349996,-0.00061740822593693,0.0007952184203748924,0.4219755716434636,-0.0001241941976521461,-8.719301948868877e-05,0.0007163898645662392,19.093205275455134,-14.779362050070242,0.06914795058600036,0.0,0.0,0.0,0.0,0.33323978334729104,0.257947855853428,0.0013430726589831465
0.05500000000000004,-2.1735503023840776e-05,2.8001427626467404e-05,0.013038584256776254,-0.0006147228257080136,0.0007919524256803537,0.4278396464262567,0.00020904509916369688,0.000170755509629336,0.0007175967239749713,9.577515121064833,-7.223345561159322,0.02402236049211145,0.0,0.0,0.0,0.0,0.1671592095794795,0.12607111000846216,0.0004349265867631402
0.05600000000000004,-2.2345581644024554e-05,2.878751967637097e-05,0.013472227869594539,-0.000610078620183776,0.000786092049903568,0.433643612818284,0.0003762042721858215,0.0002968266726808836,0.0007180159932596596,-2.343410970064944,2.1349868488754704,-0.05841108357302763,0.0,0.0,0.0,0.0,-0.04090006307559846,-0.03726276229978112,-0.001011676137466111
0.057000000000000044,-2.2951613490184348e-05,2.95684090829943e-05,0.013911615834829201,-0.0006060318461597935,0.0007808894066233292,0.439387965234663,0.00033530403503083395,0.000259564122681228,0.0007169965275316527,-12.97196569636347,10.392795895235,-0.16364768062876683,0.0,0.0,0.0,0.0,-0.2264026640636904,-0.18138956853479984,-0.0027879513826860602
0.058000000000000045,-2.3556425364860837e-05,3.0347619487702553e-05,0.014356689031588333,-0.0006048118746764903,0.0007792104047082556,0.4450731967591318,0.00010890052317353237,7.817561582162559e-05,0.0007141403366914286,-19.12149198850506,15.074098187605918,-0.26297597780908333,0.0,0.0,0.0,0.0,-0.33373180174659933,-0.26309416933030016,-0.004501580229941737
0.059000000000000045,-2.416408426930341e-05,3.113030265300199e-05,0.014807388832869986,-0.0006076589044425747,0.0007826831652994375,0.45069980128165305,-0.00022483246991959863,-0.00018491702932100755,0.0007095505400250085,-19.06936414620696,14.870305107720405,-0.3185205062562299,0.0,0.0,0.0,0.0,-0.33282275601671785,-0.25953638877011487,-0.005530967936635989
0.060000000000000046,-2.4778571840975822e-05,3.192155759859729e-05,0.015263657109603757,-0.0006144875716724126,0.0007912549455952915,0.4562682767337705,-0.0005576556605326674,-0.0004444528142268587,0.0007039913084557182,-13.034244783530266,10.00171641256626,-0.30405643905563884,0.0,0.0,0.0,0.0,-0.22749146829859057,-0.17456168470022415,-0.005346033152193286
0.06100000000000005,-2.540253765640404e-05,3.272483336366955e-05,0.01572543623729523,-0.0006239658154282174,0.0008032757650722624,0.46177912769147306,-0.0007851461475161662,-0.0006190156964768955,0.0006986845224823078,-3.047395247084895,2.1018988852860283,-0.22406566796266975,0.0,0.0,0.0,0.0,-0.05318881878555262,-0.03668286957353992,-0.003931140280428735
0.06200000000000005,-2.6036506486027322e-05,3.354089603795784e-05,0.01619266910103697,-0.0006339688296232818,0.0008160626742882913,0.46723286374173933,-0.0008383332281874237,-0.0006557007525691352,0.0006947738388356789,7.723442972425058,-6.3246885739115095,-0.11260543385818525,0.0,0.0,0.0,0.0,0.1347982928853419,0.11038814882905565,-0.0018786649580988524
0.06300000000000004,-2.6678762178331314e-05,3.436765080330395e-05,0.016665299093612914,-0.00064225569230399,0.0008267547653461128,0.4726299925759431,-0.0007035337187285889,-0.0005453141127911146,0.0006928085032592168,15.974234476281175,-12.693126291501597,-0.012407811549976217,0.0,0.0,0.0,0.0,0.27880284510001296,0.22153694985683556,-3.083536421399913e-05
0.06400000000000004,-2.7325916869095766e-05,3.520083918235908e-05,0.017143270104958447,-0.0006471546907644534,0.0008331883790551326,0.4779710113455314,-0.0004247307316318904,-0.00032377726663295424,0.0006925919460947027,19.274091034846382,-15.12786654376103,0.047421362162592386,0.0,0.0,0.0,0.0,0.33639680022124985,0.26403043236274326,0.0010134133298720371
0.06500000000000004,-2.7973965985035293e-05,3.603536566364118e-05,0.017626526506537614,-0.0006480491159395278,0.0008345264812821019,0.4832564015791663,-8.833438274469995e-05,-5.974618664202942e-05,0.0006934196050002206,16.77652919698929,-13.011288386461201,0.058300942938814986,0.0,0.0,0.0,0.0,0.2928060010018421,0.2270893696052569,0.001113995289642844
0.06600000000000004,-2.861948994819024e-05,3.686682681894462e-05,0.018115013136630456,-0.0006455239631549442,0.0008314611553034398,0.48848663009284393,0.00020447128879972357,0.00016734363562821895,0.0006944371484115203,9.425748654344138,-7.131497103413115,0.024437680604827376,0.0,0.0,0.0,0.0,0.16451037396655346,0.12446806688918428,0.00043751279889647776
0.06700000000000005,-2.9260632234826468e-05,3.769277149172913e-05,0.018608675290459772,-0.0006411422866362291,0.0008259446727845114,0.49366215382931766,0.0003689816372834537,0.0002918117406792163,0.0006948636663996253,-0.3885533671018129,0.6028199737949222,-0.04541679075230643,0.0,0.0,0.0,0.0,-0.006781402926933716,-0.010521355198340923,-0.000790521224701024
0.06800000000000005,-2.9897565781796717e-05,3.851332074352399e-05,0.019107458715243806,-0.0006369335469702499,0.0008205492517948569,0.498783424784034,0.00036220010170781683,0.000281290547339709,0.0006940709938653082,-9.604977540360963,7.7797098909575,-0.1370386819281871,0.0,0.0,0.0,0.0,-0.16763778471103838,-0.13578242572546306,-0.0023416750391902497
0.06900000000000005,-3.0532326264311065e-05,3.9330984954661144e-05,0.0196113096083891,-0.0006347604825143454,0.0008176642111371567,0.5038508931452941,0.0001945616190484115,0.0001455089948925316,0.0006916792176630681,-15.443491027020716,12.234710127769851,-0.22588875353812213,0.0,0.0,0.0,0.0,-0.26953865743504274,-0.21353738872461997,-0.003865159327801848
0.07000000000000005,-3.116808765614753e-05,4.014976523074013e-05,0.020120174617927332,-0.0006357613918364621,0.0008187802760789861,0.5088650095382329,-7.497814737530062e-05,-6.802697986414843e-05,0.0006877367151706019,-16.2419573598882,12.70202185609365,-0.28057203652352,0.0,0.0,0.0,0.0,-0.2834749203547323,-0.22169305160303412,-0.0048537729076088
0.07100000000000005,-3.1808121769660745e-05,4.097383973324844e-05,0.02063400084548296,-0.0006400341135132151,0.000824074502508314,0.5138262275556303,-0.0003584537802738753,-0.00028971908291326395,0.0006828398093442407,-11.925353613209591,9.170931081519992,-0.27774716042292946,0.0,0.0,0.0,0.0,-0.20813701478286284,-0.16006257893184483,-0.004859603635509302
0.07200000000000005,-3.245476987824444e-05,4.18062494611868e-05,0.02115273585115283,-0.000646648108583696,0.0008324097279383577,0.5187350056698687,-0.0005665904652889849,-0.00044978202575927234,0.0006779922069067957,-3.9767954579660834,2.8484509850841033,-0.21734834675623832,0.0,0.0,0.0,0.0,-0.06940927345304487,-0.04971348530313084,-0.003811264346666121
0.07300000000000005,-3.3108737952611665e-05,4.2647981775373164e-05,0.021676327657319056,-0.0006539680743672281,0.0008417323141863651,0.5235918061662249,-0.0006359986397088489,-0.0004994968740306659,0.000674198762632133,5.064598219892581,-4.247690223803573,-0.12409795374135678,0.0,0.0,0.0,0.0,0.08839294003686696,0.07413739529860698,-0.0021239124705516588
0.07400000000000005,-3.37689165807289e-05,4.349771364582027e-05,0.02220472474747876,-0.0006601786281172337,0.0008497318704471019,0.5283970901597073,-0.0005476047254810795,-0.0004253606940205187,0.0006720328447443587,12.410710817844254,-9.929813078712503,-0.03330000408553156,0.0,0.0,0.0,0.0,0.2166074759793306,0.17330826691907178,-0.0004709709203893908
0.07500000000000005,-3.443275952625824e-05,4.4352266274617405e-05,0.02273787605837489,-0.000663842945529337,0.000854552628797135,0.5331513108961282,-0.00033099695919681905,-0.0002520527616893907,0.0006714516500321386,15.880722451900269,-12.512063958426774,0.027158805674302445,0.0,0.0,0.0,0.0,0.27717109600650963,0.2183764199818514,0.000593594579584078
0.07600000000000005,-3.509708405319674e-05,4.520760507962146e-05,0.02327573096754164,-0.0006643245269385041,0.0008553388050040582,0.537854909166749,-5.382606481577258e-05,-3.3676049394728604e-05,0.0006719256606120645,14.544526833856242,-11.307512993861353,0.04526072953775539,0.0,0.0,0.0,0.0,0.2538500805042202,0.19735305967338465,0.0008552720354941812
0.07700000000000005,-3.575903356203635e-05,4.606006029285972e-05,0.023818239280633934,-0.0006619495088396071,0.0008524552132382563,0.5425083130922953,0.00020002381657968513,0.00016367728256019338,0.000672715609364353,8.96449624643644,-6.804770753309483,0.021714544628859137,0.0,0.0,0.0,0.0,0.1564599880458849,0.11876563391706227,0.00038538298639423374
0.07800000000000006,-3.6416904032287356e-05,4.690738942469836e-05,0.024365351222000266,-0.0006578704702510074,0.0008473291318386428,0.5471119413663301,0.00035648379186267395,0.0002824429370488587,0.0006730945996636978,0.9752276810893006,-0.48076288391048355,-0.03603323852693851,0.0,0.0,0.0,0.0,0.017021036928019512,0.008390769283057153,-0.0006305770103267605
0.07900000000000006,-3.70705888319555e-05,4.774936580088659e-05,0.0249170174293134,-0.000653684799668147,0.0008419763761882269,0.5516662073131334,0.00037350472585427147,0.0002908338322944799,0.0006724657010112463,-6.916512248448809,5.681407134603668,-0.11477811649356773,0.0,0.0,0.0,0.0,-0.12071534568443512,-0.09915996847278323,-0.0019679071663745162
0.08000000000000006,-3.772152193157772e-05,4.858773357626225e-05,0.025473188951315066,-0.0006509330996222154,0.0008383677753756592,0.5561715220016666,0.0002527888143643237,0.00019167457164934924,0.0006704624449691959,-12.316542590601399,9.812983034970403,-0.19342035064659466,0.0,0.0,0.0,0.0,-0.2149632388648827,-0.17127011234145406,-0.0033118518525157015
0.08100000000000006,-3.8372156519077373e-05,4.942556801171863e-05,0.026033817247846487,-0.0006506345874996596,0.0008378344354563769,0.5606282965314201,3.782459369621729e-05,2.0405708246769858e-05,0.0006670866230100509,-13.667847484231443,10.724896390042732,-0.2457278889740231,0.0,0.0,0.0,0.0,-0.23854811821389227,-0.18718583211144998,-0.004241442299246501
0.08200000000000006,-3.9025155561873746e-05,5.026625854761309e-05,0.026598854191994564,-0.0006529990427963702,0.0008406905358944616,0.5650369441480768,-0.00020072434656404512,-0.00016677904569472978,0.0006627978622834791,-10.696485108864143,8.247512333109736,-0.2511526972813142,0.0,0.0,0.0,0.0,-0.18668879409299516,-0.1439464110105257,-0.004377996780533522
0.08300000000000006,-3.968255132164075e-05,5.111243790658652e-05,0.027168252073695182,-0.0006573957597670029,0.0008461793589734307,0.5693978817006166,-0.0003874132301042685,-0.000310725291006334,0.0006584144207906555,-4.452334118866655,3.2487196197306623,-0.20680290656485287,0.0,0.0,0.0,0.0,-0.07770849174399122,-0.05670012820343211,-0.0036207727411010637
0.08400000000000006,-4.034513009727576e-05,5.19651839725098e-05,0.02774196360261623,-0.0006625787756350126,0.0008527460659232774,0.5737115289210484,-0.0004651211198773722,-0.0003674261448447722,0.0006548050291684046,3.0543094277847334,-2.6645524277836126,-0.1302169394196051,0.0,0.0,0.0,0.0,0.0533070496997359,0.0465060899464088,-0.002254697320154264
0.08500000000000006,-4.101221998529355e-05,5.2823725514770385e-05,0.02831994190739681,-0.0006670898880177876,0.0008585415422605855,0.5779783047805825,-0.00041181336398782466,-0.00032092093188793974,0.0006525323148336626,9.496261774608646,-7.660071329950881,-0.049960432405174345,0.0,0.0,0.0,0.0,0.1657407142121474,0.1336938567572991,-0.0008097902357917519
0.08600000000000006,-4.1681930111831334e-05,5.368572090032115e-05,0.028902140529694306,-0.0006697101265377855,0.0008619953855507666,0.5821986222974933,-0.00024607232938962415,-0.00018722746624267594,0.0006516603407924722,12.947941117542909,-10.245731628716833,0.008499813859855418,0.0,0.0,0.0,0.0,0.2259842514640131,0.17882167494121806,0.00022199090227559282
0.08700000000000006,-4.235175087213304e-05,5.454800247904512e-05,0.029488513414235265,-0.0006698207603017063,0.0008622815787239649,0.5863728845409585,-2.0088125534146258e-05,-8.405715045846032e-06,0.0006518086905301333,12.457695374445382,-9.71271173330034,0.031448623928972026,0.0,0.0,0.0,0.0,0.21742790426033143,0.1695186588461832,0.0005905958918788201
0.08800000000000006,-4.301931873578065e-05,5.5407542417502705e-05,0.030079014898015632,-0.0006675678636476136,0.0008595399384575841,0.5905014837803657,0.00019733967596039352,0.0001611130839973303,0.0006523575725629154,8.304711612592612,-6.325369961033601,0.016808302927451984,0.0,0.0,0.0,0.0,0.14494456353425134,0.11039852631144997,0.00029557792726109255
0.08900000000000007,-4.368310699039503e-05,5.6262338335163127e-05,0.03067359970156618,-0.0006637882546143751,0.0008547959176604219,0.5945848035505469,0.0003422842370287424,0.0002715116162241121,0.000652650932790672,1.872874368310502,-1.2084142251227041,-0.029753041993165526,0.0,0.0,0.0,0.0,0.03268790786740586,0.021090704069426813,-0.0005234505813973556
0.09000000000000007,-4.434283569674066e-05,5.7111953420443705e-05,0.03127222292344762,-0.0006597287063456335,0.0008496150852805818,0.5986232218814412,0.0003749720612319696,0.00029260242318043925,0.0006521316442454072,-4.807239092426582,4.0242294094634286,-0.09653585632434536,0.0,0.0,0.0,0.0,-0.0839016926320533,-0.07023662564025852,-0.0016608276849297
0.09100000000000007,-4.499948752200312e-05,5.7957561030753905e-05,0.031874840037634695,-0.000656651825262465,0.0008456076103101988,0.6026171141870774,0.0002910699111385417,0.0002223663701297154,0.0006504467757063151,-9.697757821573587,7.777204886864491,-0.1654187972959098,0.0,0.0,0.0,0.0,-0.16925695927427037,-0.1357389049180971,-0.0028362044375285222
0.09200000000000007,-4.5654940231860306e-05,5.880149999595809e-05,0.03248140689314218,-0.0006554527098571834,0.0008439389652041884,0.6065668555074892,0.00012181210709104982,8.662853825173691e-05,0.0006475596730488123,-11.373680073360825,8.958936065495093,-0.21434561209460454,0.0,0.0,0.0,0.0,-0.19850733346787905,-0.1563640140980579,-0.0036955238732616635
0.09300000000000007,-4.631134255952916e-05,5.964649494923524e-05,0.033091879715507526,-0.0006564023276688529,0.0008449949532771498,0.6104728223653437,-7.66960582575668e-05,-6.973439356681882e-05,0.0006438186363805589,-9.435741115047202,7.297207454088415,-0.22534012265167397,0.0,0.0,0.0,0.0,-0.1646844091196514,-0.12736077440814902,-0.003917413007172854
0.09400000000000007,-4.697043305100507e-05,6.0494791417883235e-05,0.03370621510944381,-0.0006590904914759088,0.0008482964686479918,0.6143353939362863,-0.00024138080808094154,-0.0001970946898417346,0.0006398857093034393,-4.597306194061681,3.3946606287456422,-0.19385854680329345,0.0,0.0,0.0,0.0,-0.08023836575292889,-0.059247745286369904,-0.0033880139951065757
0.09500000000000007,-4.763301088456998e-05,6.13474712923738e-05,0.03432437006100394,-0.0006625778335649104,0.0008526798744905679,0.618154951560124,-0.00032161893788964726,-0.0002563426948011669,0.0006365022393785904,1.5701950501106576,-1.483999332314266,-0.1320074074058435,0.0,0.0,0.0,0.0,0.027404619423901724,0.02590122982438485,-0.0022977118587164114
0.09600000000000007,-4.829871324361667e-05,6.220414900877547e-05,0.034946301937047064,-0.0006657023590466923,0.0008566777164016736,0.6219318760431237,-0.0002942138643666989,-0.0002304420203548855,0.0006341982754823368,7.144310841386032,-5.819313659749742,-0.06250036179836807,0.0,0.0,0.0,0.0,0.12469146733999463,0.10156652914982597,-0.0010581713972896978
0.09700000000000007,-4.896615464288798e-05,6.3063125355035e-05,0.03557196848067137,-0.0006674413992713072,0.0008589763462595354,0.6256665436243111,-0.0001695221173985863,-0.0001288758367859715,0.0006331074383852676,10.448256544396473,-8.308337038253137,-0.007812078468576138,0.0,0.0,0.0,0.0,0.18235644637280304,0.14500787052186812,-9.36831658009396e-05
0.09800000000000007,-4.963337155256945e-05,6.392193398468382e-05,0.036201327803239126,-0.0006672169096814736,0.0008588086296488251,0.6293593225677544,1.283436039417729e-05,1.6131999896939835e-05,0.0006329710918945668,10.55265581556098,-8.254160480328617,0.017910838043451876,0.0,0.0,0.0,0.0,0.18417862909825197,0.14406222230658028,0.0003370248307419388
0.09900000000000007,-5.0298425247329956e-05,6.477809923191568e-05,0.03683433837523562,-0.0006650536947605031,0.0008561652472318514,0.6330105719964957,0.00019701294920544386,0.0001601942772666708,0.0006332836949902165,7.532890063459528,-5.75775738669597,0.010576163455664731,0.0,0.0,0.0,0.0,0.13147373082034564,0.10049182628967263,0.0001832991262062933
0.10000000000000007,-5.095997360774455e-05,6.562986698699339e-05,0.037470959018348494,-0.0006615483604145907,0.000851767755077718,0.6366206431128705,0.0003284866830035772,0.00026068610119553984,0.000633468283864747,2.4120393906352295,-1.6603489801371354,-0.026002428118337775,0.0,0.0,0.0,0.0,0.04209810175502805,0.02897846646314675,-0.00045953712037771766
0.10100000000000008,-5.161763952319481e-05,6.647668807071938e-05,0.038111148900043496,-0.0006576659154502605,0.0008468210837259891,0.6401898816950018,0.00037058471205795966,0.0002896646576310628,0.0006330144558805689,-3.182558340338533,2.737751009958025,-0.08187694402999546,0.0,0.0,0.0,0.0,-0.05554574914947777,-0.0477832360603596,-0.0014133261260553809
0.10200000000000008,-5.22720721204565e-05,6.731931740907919e-05,0.0387548675306997,-0.0006544325972616911,0.000842629338359808,0.6437186306561994,0.000315038590382246,0.00024188188840749522,0.0006315854336257743,-7.534907677873583,6.0886285152595665,-0.14158495672195248,0.0,0.0,0.0,0.0,-0.13150823201551362,-0.1062675229857282,-0.0024317426108950713
0.10300000000000008,-5.292469441104305e-05,6.815951427937882e-05,0.03940207476286611,-0.0006526222905865431,0.0008401968702996352,0.6472072321664167,0.00018352964256955167,0.000135615273885402,0.0006291143099596825,-9.365382794244256,7.408850775449298,-0.18651372861179324,0.0,0.0,0.0,0.0,-0.16345597807624596,-0.12930985894197336,-0.0032145411337296537
0.10400000000000008,-5.357722640736285e-05,6.899945046376397e-05,0.04005273079219195,-0.0006525319963197993,0.0008399361843851566,0.65065602932584,2.0072877100362765e-05,6.3064340648766835e-06,0.0006258590312952356,-8.205108124250481,6.366595401868108,-0.20099878151440614,0.0,0.0,0.0,0.0,-0.14320567649965027,-0.11111869387211967,-0.003487696982347188
0.10500000000000008,-5.4231137390756984e-05,6.984101745370852e-05,0.04070679615934989,-0.0006539109833941365,0.0008415669899445574,0.6540653671579367,-0.0001231332751499441,-0.00010481161784005335,0.0006223509407653125,-4.510899255234552,3.3606042768381372,-0.17963145927518828,0.0,0.0,0.0,0.0,-0.07873002445792061,-0.05865367240730162,-0.0031339830571255334
0.10600000000000008,-5.488719641892381e-05,7.068524682197779e-05,0.041364231751640446,-0.0006560590281668264,0.0008442293682692663,0.6574355922905536,-0.0002018633193795471,-0.00016346522732748185,0.0006192157803607983,0.5053691370094026,-0.6260273520576618,-0.13047188848627464,0.0,0.0,0.0,0.0,0.008820116705530207,0.010926518812780638,-0.0022758186220812604
0.10700000000000008,-5.5545253615088644e-05,7.1532015001273e-05,0.04202499880258028,-0.0006580571961648338,0.0008467681792952164,0.6607670509398345,-0.0001930429640007707,-0.00015253898882653397,0.0006169386163254179,5.271286484285424,-4.3450659297123755,-0.07130475724230784,0.0,0.0,0.0,0.0,0.09200110153372704,0.07583595636406079,-0.00122919429685453
0.10800000000000008,-5.620430945137894e-05,7.238011061393936e-05,0.042689058888346516,-0.0006590558362902999,0.0008480956126663633,0.6640600857662335,-0.00010104165903411371,-7.670328213682451e-05,0.0006156941135392044,8.344601166965798,-6.672271633420524,-0.021457796959633093,0.0,0.0,0.0,0.0,0.1456407080020587,0.11645317871712771,-0.00035202874272499685
0.10900000000000008,-5.686283953794464e-05,7.322762942171262e-05,0.04335637392135583,-0.0006585300865656992,0.0008475188077732522,0.6673150330093134,4.459910609520055e-05,3.974982645378376e-05,0.0006153196043320343,8.84748062794098,-6.945543206533219,0.005351265223348555,0.0,0.0,0.0,0.0,0.15441767462785708,0.12122258723771545,0.00010564572886551105
0.11000000000000008,-5.751926615564412e-05,7.407256399972465e-05,0.044026906142562244,-0.0006564266176994739,0.0008449345780120363,0.6705322212064174,0.0001990167735591861,0.00016097242374731296,0.0006154130015293292,6.714144842166825,-5.150796493395064,0.0037294000056536806,0.0,0.0,0.0,0.0,0.11718393136427761,0.08989836072348431,6.108092270551424e-05
0.11100000000000008,-5.817242753998784e-05,7.491340149479107e-05,0.044700618114386206,-0.0006531613843437246,0.0008408374950664183,0.67371197182396,0.00031620070751079224,0.0002508707816572352,0.0006154780918385518,2.6829384891500365,-1.9041347072026056,-0.02420611538134353,0.0,0.0,0.0,0.0,0.0468261782712021,0.033233335304143505,-0.00042909040666927467
0.11200000000000009,-5.882190252149128e-05,7.574954784069696e-05,0.04537747271552259,-0.0006494749815034429,0.0008361463459058851,0.6768546011363816,0.0003630268177749425,0.00028410420169941886,0.0006150556154260297,-1.9559631889870295,1.757309370497543,-0.07031327952666698,0.0,0.0,0.0,0.0,-0.03413768982745437,-0.030671220998983423,-0.001217499996243987
0.11300000000000009,-5.946809769772938e-05,7.65814567055831e-05,0.04605743313793946,-0.0006461951762381013,0.0008319088648861453,0.6799604224168752,0.0003288888200793107,0.00025343336720808784,0.0006138284171904142,-5.772046267132282,4.705611586604771,-0.12153163879474863,0.0,0.0,0.0,0.0,-0.1007406093177527,-0.08212918012048336,-0.0020913122002639284
0.11400000000000009,-6.011208010293728e-05,7.741043587438893e-05,0.04674046288582255,-0.0006439824052078997,0.0008289791688058281,0.6830297478830932,0.00022814760814040424,0.00017130495170184027,0.0006117072899481014,-7.634465470936354,6.068642306703737,-0.16214203586877562,0.0,0.0,0.0,0.0,-0.13324584190344269,-0.10591871437585124,-0.0027950769617177684
0.11500000000000009,-6.0755216296282944e-05,7.823820269857194e-05,0.047426525776042165,-0.0006431361933456665,0.0008277668241830051,0.6860628902196126,9.490104904274539e-05,6.538716232403651e-05,0.0006088773775663046,-7.045703349892138,5.486872218435841,-0.1785367583151103,0.0,0.0,0.0,0.0,-0.12297018777888853,-0.09576469427590106,-0.003094205817490092
0.11600000000000009,-6.139873514837245e-05,7.906633348804007e-05,0.04811558593950107,-0.0006435188520894983,0.00082813078946813,0.6890601634589051,-2.8069672531666484e-05,-3.0376823523874428e-05,0.0006057613232978685,-4.27102034501281,3.2052594184973224,-0.16496189713100168,0.0,0.0,0.0,0.0,-0.07454317918211192,-0.05594260321371277,-0.0028738192403352514
0.11700000000000009,-6.204335010859664e-05,7.989577808909341e-05,0.04880760782229697,-0.0006446149602241945,0.0008294446010533317,0.6920218827959033,-0.0001026130399718042,-8.631915375721155e-05,0.0006028821950525964,-0.2313529199836131,-0.022107828344445694,-0.1265047440574108,0.0,0.0,0.0,0.0,-0.004037937257543936,0.00038591637063642437,-0.002207913470499534
0.11800000000000009,-6.268905327082045e-05,8.072658426543491e-05,0.04950255618537082,-0.0006457031622238084,0.0008308061763415112,0.6949483630738499,-0.00010665091015962123,-8.593329936213525e-05,0.0006006742707494018,3.7995696082031025,-3.1791451532400035,-0.07689178856786642,0.0,0.0,0.0,0.0,0.06631488398026661,0.05548668773896229,-0.0013363212225954157
0.11900000000000009,-6.333513692015629e-05,8.155790707313204e-05,0.050200396101696916,-0.0006460836493358357,0.0008313228076971233,0.6978399163260938,-4.0335910337766146e-05,-3.0446749039277516e-05,0.0005993322558711452,6.594941615326799,-5.3062056208773365,-0.03240804856475239,0.0,0.0,0.0,0.0,0.1151033965580387,0.09261081867009302,-0.000555750124590304
0.12000000000000009,-6.398042695803744e-05,8.2388288964158e-05,0.050901092951086545,-0.0006452900378811564,0.0008303818910259622,0.7006968493896275,7.476753482647983e-05,6.216400983286198e-05,0.000598766628719544,7.34644659816588,-5.790372124215294,-0.005805519875141658,0.0,0.0,0.0,0.0,0.12821967837490128,0.10106106248809624,-9.724904668928502e-05
0.1210000000000001,-6.462364889171297e-05,8.321611480235536e-05,0.05160461241371506,-0.0006432219336755228,0.0008278258381973629,0.7035194626285158,0.00020298721628641127,0.00016322506831611695,0.0005986653032829328,5.895595443935078,-4.540148728627604,-0.003179074781815739,0.0,0.0,0.0,0.0,0.10289755531143396,0.07924053947480086,-6.140994196357497e-05
0.1220000000000001,-6.526380997712597e-05,8.404009675275922e-05,0.05231092046388199,-0.0006401610854130067,0.0008239819504038518,0.7063080501669271,0.0003058847681486551,0.00024246561216090316,0.000598609817960823,2.759324183449337,-1.995318141749265,-0.02383292988310258,0.0,0.0,0.0,0.0,0.04815936002669956,0.034824786045651514,-0.00042303208635985357
0.1230000000000001,-6.590048082706863e-05,8.485964075042778e-05,0.053019983365148425,-0.0006366708499426647,0.0008195439976685643,0.70906290126643,0.0003540440602797501,0.0002772904833592028,0.000598193854863966,-1.0507835134084376,1.0253496306213177,-0.0613479197375312,0.0,0.0,0.0,0.0,-0.01833937242110037,-0.017896053719138008,-0.0010652490768734424
0.1240000000000001,-6.653389496442881e-05,8.567498811751467e-05,0.053731767667299396,-0.0006334141373601858,0.0008153473670868949,0.7117843021509744,0.00033570442824509887,0.0002593947563207531,0.0005971231316752968,-4.353465535679676,3.586546146237399,-0.10482943563906916,0.0,0.0,0.0,0.0,-0.07598180013383274,-0.06259768286900701,-0.0018074565105052898
0.12500000000000008,-6.716484332854766e-05,8.648709837182184e-05,0.05444624020504393,-0.0006309483641188375,0.0008121102543071624,0.7144725377445353,0.00025972212077538984,0.0001967977172941965,0.0005952935128703875,-6.163046397378584,4.9252797772693535,-0.14102670953762395,0.0,0.0,0.0,0.0,-0.10756481311826539,-0.08596317014763542,-0.0024325222526044854
0.12600000000000008,-6.779440392818916e-05,8.72973191435226e-05,0.05516336809809692,-0.0006295605996415055,0.0008102207717007658,0.7171278930529852,0.00015215666918795873,0.00011083536859895331,0.0005928321324557023,-5.9824562866736635,4.677241950884392,-0.15815647386797604,0.0,0.0,0.0,0.0,-0.10441301632827715,-0.0816339861262721,-0.002739149089507009
0.12700000000000009,-6.842359530026883e-05,8.810695186104239e-05,0.05588311875206488,-0.0006291913720796638,0.0008096327175197937,0.7197506539679589,4.7743109628869534e-05,2.9202096643617773e-05,0.0005900717812533618,-3.9373640402640553,2.9739064308491376,-0.1504574407680549,0.0,0.0,0.0,0.0,-0.0687196753010258,-0.051904857823733615,-0.002618080069453299
0.12800000000000009,-6.905306204336326e-05,8.891684913385346e-05,0.05660545985925412,-0.0006294667430944384,0.0008098972728110607,0.7223411071892464,-2.0976856723364814e-05,-2.270236222093274e-05,0.0005874458035278349,-0.7161545673237023,0.3852746815757494,-0.12086411221320341,0.0,0.0,0.0,0.0,-0.012499193551851383,-0.006724412423383383,-0.002109155662765261
0.1290000000000001,-6.96828866419876e-05,8.972716469862974e-05,0.05733035939834213,-0.0006298245986243321,0.0008103155647762809,0.7248995390880038,-3.347611187635881e-05,-2.94266739390023e-05,0.0005853363268222146,2.659198260751487,-2.2689387360753037,-0.07982028291286938,0.0,0.0,0.0,0.0,0.04641173348615212,0.03960048068526019,-0.001392296053040809
0.1300000000000001,-7.031257969205228e-05,9.05373256696653e-05,0.05805778563212267,-0.0006296930500646757,0.0008101609710355585,0.7274262337805429,1.293565323706133e-05,1.0173777531550394e-05,0.0005839432000755117,5.155722162367572,-4.177609232205973,-0.04081840276120164,0.0,0.0,0.0,0.0,0.08998430608733649,0.0729130597717533,-0.0007099746779317684
0.1310000000000001,-7.094124438563465e-05,9.134622659785212e-05,0.05878770710327638,-0.0006286646935823644,0.0008089009281868274,0.7299214711537172,0.00010291998028841715,8.308681349525695e-05,0.0005832307845519235,6.044067217939619,-4.7849071240567635,-0.015351101909190878,0.0,0.0,0.0,0.0,0.1054888758907325,0.08351238024412191,-0.0002690075593250185
0.1320000000000001,-7.156785835912759e-05,9.215257756785644e-05,0.05952009262893717,-0.0006266139734929414,0.0008063509700043134,0.732385525660786,0.00020840885345331717,0.00016659919721218026,0.0005829628572797989,5.1097089744086075,-3.950661761711114,-0.009748149479255955,0.0,0.0,0.0,0.0,0.08918125955829934,0.06895203749878258,-0.00017723384706869183
0.1330000000000001,-7.21915826314702e-05,9.295529454285996e-05,0.06025491129523215,-0.0006237242723426022,0.0008027169750035154,0.7348186662949842,0.00029759009887545007,0.00023555125258667884,0.0005827927199754093,2.7001055770903073,-1.978542707018158,-0.024421826934232314,0.0,0.0,0.0,0.0,0.04712580348314373,0.034531995046394245,-0.0004334380662953663
0.1340000000000001,-7.28120027234075e-05,9.37538118263834e-05,0.060992132452802814,-0.0006204200919373048,0.000798517283523448,0.7372211575706632,0.0003447158313471375,0.0002700833372154672,0.0005823664786860547,-0.4007751487117186,0.4919173606393025,-0.05450604598605292,0.0,0.0,0.0,0.0,-0.00699462182293769,-0.00858586031112181,-0.0009487549133382345
0.1350000000000001,-7.342923142178705e-05,9.454822495417123e-05,0.06173172571381268,-0.0006172286983795596,0.0007944131277878284,0.7395932610098667,0.0003377209854419481,0.000261497759624591,0.0005814151687213547,-3.2263139687861573,2.691815270659913,-0.09103924881316275,0.0,0.0,0.0,0.0,-0.05630937231363895,-0.04698158426801744,-0.0015727393802649203
0.1360000000000001,-7.404384748130339e-05,9.533922745299354e-05,0.062473660950472146,-0.0006146160595163389,0.0007910024988223077,0.741935236659466,0.0002814111839835441,0.00021451672029611322,0.0005798262340810227,-4.927729256094055,3.9615476984099725,-0.12289689443545895,0.0,0.0,0.0,0.0,-0.08600453926465425,-0.06914277126547226,-0.0021216045316236887
0.1370000000000001,-7.465669541094049e-05,9.612786891281196e-05,0.06321790829480696,-0.0006128479296370987,0.0007886414598184302,0.7442473443348085,0.00019540608381785198,0.00014537466948405587,0.000577681278632648,-5.028127715199234,3.9478400537912117,-0.1399139396482765,0.0,0.0,0.0,0.0,-0.08775685999999255,-0.06890349174700737,-0.0024225687430998732
0.1380000000000001,-7.526861268561983e-05,9.691521493585417e-05,0.06396443813916955,-0.0006119172746793443,0.0007873460230422005,0.7465298443625941,0.00010764869997684562,7.647186220328919e-05,0.000575239319716349,-3.554452036602167,2.7005840912814065,-0.1365369177671913,0.0,0.0,0.0,0.0,-0.06203654471236162,-0.04713454887632336,-0.00237380840815149
0.1390000000000001,-7.588017012570638e-05,9.770201607040161e-05,0.06471322113675941,-0.0006115574400865452,0.0007868011345474414,0.7487829975898633,4.561180883391981e-05,2.9337778083449553e-05,0.0005728563009507867,-1.0114810183270495,0.64350314611405,-0.11416757112449175,0.0,0.0,0.0,0.0,-0.017653521713398485,-0.01123146308235727,-0.0019913909684419195
0.1400000000000001,-7.649150377196354e-05,9.848848581925329e-05,0.06546422820129512,-0.000611333646257154,0.0007864697488516714,0.7510070645357149,2.795813474268769e-05,1.8106529436817225e-05,0.0005708637009356596,1.7886312724379694,-1.567998092293693,-0.08063240474813572,0.0,0.0,0.0,0.0,0.03121754609526113,0.027366665157505785,-0.0014085491906143943
0.1410000000000001,-7.710228567279446e-05,9.927425070639794e-05,0.06621743050517603,-0.0006107819008309117,0.0007857648871446557,0.7532023038809103,5.9175639550865956e-05,4.547325881233209e-05,0.0005694563999890039,3.984302888961121,-3.25455142892543,-0.046950645052337835,0.0,0.0,0.0,0.0,0.0695392186463686,0.05680261517792751,-0.000821031437453712
0.1420000000000001,-7.771183691989278e-05,0.00010005848065376185,0.0669727994760183,-0.0006095512470983236,0.0007842299473639091,0.7553689708422592,0.00012871484335995955,0.00010227589692256707,0.0005686369566469054,4.928375250921304,-3.9205465869581064,-0.023235308366638563,0.0,0.0,0.0,0.0,0.08601639334326887,0.06842642230278584,-0.00040958181131145466
0.1430000000000001,-7.831934293032657e-05,0.00010084015287557284,0.06773030679209363,-0.000607506010433792,0.0007816722218109897,0.7575073160753305,0.00021473121826233801,0.0001707023433428122,0.0005682314240131914,4.377378916924773,-3.398587496502883,-0.015710663453809375,0.0,0.0,0.0,0.0,0.07639970275205839,0.05931650594575204,-0.0002818377205926481
0.1440000000000001,-7.892410150934572e-05,0.00010161836385628762,0.06848992437758103,-0.0006047585790191426,0.0007782109807147706,0.7596175854873992,0.00029113089297005864,0.00023001888507389877,0.0005679572212082496,2.5512724064987924,-1.8889068295057063,-0.025593089973784122,0.0,0.0,0.0,0.0,0.04452817985863464,0.03296754676129114,-0.0004537628511798175
0.1450000000000001,-7.952572703527231e-05,0.00010239259280902884,0.06925162439849408,-0.0006016255259265889,0.0007742289527412218,0.7617000209130597,0.00033565899657874175,0.0002629865285121805,0.000567510537522448,0.05007201724709583,0.11456961503841204,-0.049355052283495265,0.0,0.0,0.0,0.0,0.0008741197042211324,-0.001999867702939799,-0.0008608259552715936
0.1460000000000001,-8.012425048602155e-05,0.00010316283860525449,0.07001537925979594,-0.0005985234507492407,0.0007702457962256574,0.76375486130186,0.00033653291814281894,0.0002609869115070178,0.0005666491293576071,-2.3421836354504038,1.9849948223154976,-0.0797351510031702,0.0,0.0,0.0,0.0,-0.04087845014213128,-0.03464516044955704,-0.0013800119846223424
0.1470000000000001,-8.072008906549935e-05,0.00010392959368894391,0.07078116160381348,-0.0005958385794777895,0.0007667550836894195,0.7657823440175386,0.0002956541020178788,0.00022634221622257257,0.0005652574884430269,-3.902489471164732,3.158178194263268,-0.1074480766366113,0.0,0.0,0.0,0.0,-0.0681108008615597,-0.055121235841048735,-0.0018567726435207987
0.1480000000000001,-8.131389984547114e-05,0.00010469366942071459,0.07154894430975808,-0.0005938107799717945,0.000764075731770675,0.7677827059446012,0.0002275428117216419,0.00017122160836798944,0.0005633821657307828,-4.1866481055006215,3.3021730703043946,-0.12376435790977859,0.0,0.0,0.0,0.0,-0.07307030514256067,-0.05763442866966026,-0.002143055725468912
0.1490000000000001,-8.19063664992976e-05,0.00010545593180544111,0.07231870049393387,-0.0005924666538264575,0.0007622623847265263,0.7697561841757797,0.00015447201765827313,0.00011358781582048756,0.0005612220701886405,-3.1544705031627633,2.4101430263895307,-0.12347063511381853,0.0,0.0,0.0,0.0,-0.05505552745995683,-0.04206542051322616,-0.00214539745223874
0.1500000000000001,-8.249798657599948e-05,0.00010621703139151682,0.07309040351002234,-0.0005916200767018803,0.0007610995860757057,0.7717030160884785,9.94161212210407e-05,7.152288456600966e-05,0.0005590671010763758,-1.1676008664717272,0.7909373280289845,-0.10690103515839237,0.0,0.0,0.0,0.0,-0.020378267539759465,-0.013804748596365428,-0.0018636426001421569
0.1510000000000001,-8.308892391315409e-05,0.00010697720954241496,0.07386402694874186,-0.000590937337154613,0.0007601781508981368,0.7736234387195143,7.90376417519704e-05,5.7718424014977445e-05,0.0005572013260390716,1.134836518198959,-1.0361359762678377,-0.0798212512382507,0.0,0.0,0.0,0.0,0.019806733356092558,0.018083845693935355,-0.0013949414762919332
0.1520000000000001,-8.367896842653324e-05,0.00010773623681139577,0.07463954463632395,-0.0005900445133791607,0.0007590272689808065,0.7755176875820881,9.884427546641078e-05,7.580240829921704e-05,0.0005558081823919026,3.0405746950901356,-2.506903071616955,-0.051116484291723684,0.0,0.0,0.0,0.0,0.05306809107569249,0.04375364197790425,-0.000895609138922282
0.1530000000000001,-8.42676112135815e-05,0.00010849349682678272,0.0754169306316572,-0.0005886427870482548,0.0007572600153869556,0.777385995333258,0.0001519123150485563,0.00011955612092729212,0.000554916031438968,3.983497023663723,-3.185714034892122,-0.029516810152274517,0.0,0.0,0.0,0.0,0.06952517785711362,0.055601147743081364,-0.0005206613780615044
0.1540000000000001,-8.485420756174512e-05,0.00010924818439678137,0.07619615922245455,-0.000586596348163622,0.0007546875699986499,0.7792285907973543,0.00022143745385488277,0.00017515731986315317,0.0005544008659171247,3.710628839912509,-2.8935433550278145,-0.020910345862964995,0.0,0.0,0.0,0.0,0.06476273420846111,0.0505018025706494,-0.00037262623044398424
0.1550000000000001,-8.54381748391026e-05,0.00010999955312993584,0.07697720492114181,-0.0005839672773574794,0.0007513687331544744,0.7810456986872604,0.0002862001444308136,0.00022565917845759174,0.0005540359115340852,2.34788914271029,-1.753390125221363,-0.02704904194017438,0.0,0.0,0.0,0.0,0.04097847870298829,0.030602325467303113,-0.0004788713468428796
0.1560000000000001,-8.601916375687907e-05,0.00011074713542958264,0.07776004246119116,-0.000580988917776473,0.0007475822996467962,0.7828375400493517,0.0003271785404429352,0.0002562616092146602,0.0005535638166927192,0.3482179508849524,-0.14208527352823738,-0.04551575616769228,0.0,0.0,0.0,0.0,0.006077729021096538,0.00247962838277083,-0.0007951094889904198
0.1570000000000001,-8.659715202950919e-05,0.00011149086919415309,0.0785446467943869,-0.0005779882726301137,0.0007437337645704376,0.7846043331957371,0.00033325609020042556,0.00025874146505632466,0.0005527694168860581,-1.6579295096436393,1.4334901275639536,-0.07051971545362327,0.0,0.0,0.0,0.0,-0.028936013302158205,-0.025019523873455626,-0.0012226153961023556
0.1580000000000001,-8.717243506200676e-05,0.00011223109650088522,0.07933099308918531,-0.0005752830324975703,0.0007402273067321417,0.7863462947984101,0.000304319761491169,0.00023372234253550016,0.0005515386156638228,-3.060738857152128,2.4953867629486646,-0.09436577762363753,0.0,0.0,0.0,0.0,-0.05341954445552129,-0.043553261576256205,-0.0016324791668580474
0.1590000000000001,-8.774552058914252e-05,0.00011296843979646977,0.0801190567300471,-0.0005730855271357556,0.0007373432955845479,0.7880636408617859,0.000250899790890136,0.00019016962741136273,0.0005498916221430856,-3.455809794611493,2.7390961566209318,-0.10959675163170933,0.0,0.0,0.0,0.0,-0.0603148121688988,-0.04780682635824587,-0.0018982756393484124
0.16000000000000011,-8.8316963097901e-05,0.00011370359807652515,0.0809088133174024,-0.0005714425087584809,0.000735158280055373,0.7897565873553067,0.00019058453165149647,0.0001423633809496052,0.0005479787979776218,-2.7598063627298766,2.120091616536791,-0.111415206246196,0.0,0.0,0.0,0.0,-0.04816733795046115,-0.03700306587805869,-0.0019352781501424943
0.16100000000000012,-8.888719073494428e-05,0.00011443712812054709,0.08170023866774224,-0.0005702276370432759,0.0007335300440219433,0.7914253503398437,0.0001424168239043712,0.00010536080179710914,0.000546034235791837,-1.2242742376687312,0.8581116031272944,-0.09943416864857758,0.0,0.0,0.0,0.0,-0.021367369329617265,-0.014977203302751985,-0.001732599222521003
0.16200000000000012,-8.94563775870415e-05,0.0001151692777805614,0.08249330881325792,-0.0005691868520972141,0.0007321496600143144,0.793070145515672,0.00012104920750970824,9.038392897297098e-05,0.000544298782159936,0.6529239449556313,-0.6391856746741132,-0.07781535655396209,0.0,0.0,0.0,0.0,0.011395815698691924,0.011155701020354916,-0.0013597229462334326
0.16300000000000012,-9.002439833219163e-05,0.00011589991984029522,0.0832880000005566,-0.0005680207451501344,0.0007306420597338187,0.794691187298678,0.00013244488011429422,0.00010153982352761559,0.000542940647979456,2.287928743277948,-1.9070699326260037,-0.05363922275064311,0.0,0.0,0.0,0.0,0.03993197423693725,0.033284535822278825,-0.0009402101149476039
0.16400000000000012,-9.059087576054198e-05,0.00011662860249327206,0.08408428868828921,-0.000566477428350341,0.0007286826529768461,0.7962886877326066,0.00017237676973551048,0.00013482447291772578,0.0005420044669342466,3.191598445892198,-2.5672941082199725,-0.03432328871834049,0.0,0.0,0.0,0.0,0.05570396211023072,0.044807655320802095,-0.0006049889449855073
0.16500000000000012,-9.115530303004958e-05,0.00011735469644716139,0.08488215154392396,-0.0005644272695076097,0.0007260939538893189,0.797862855634758,0.00022808067101786342,0.00017963220797321592,0.000541405412535999,3.1148993795040782,-2.440182081320973,-0.025277715733028363,0.0,0.0,0.0,0.0,0.054365309522449966,0.04258913498540332,-0.00044852074705659106
0.16600000000000012,-9.171720053608707e-05,0.00011807759013062835,0.08568156544019666,-0.0005618975060374963,0.000722893683466962,0.7994138962726888,0.00028244592105853796,0.00022222141964043494,0.0005409642331690744,2.1160084149919185,-1.5922347304106657,-0.02856801440197484,0.0,0.0,0.0,0.0,0.03693140340719593,0.027789624065080107,-0.0005049441932101217
0.16700000000000012,-9.2276258351929e-05,0.0001187968718182701,0.08648250745183521,-0.0005590578158419296,0.0007192816876417527,0.8009420116385506,0.0003193772349000535,0.00025001115815070533,0.0005404656272570028,0.5315326883763405,-0.3070612146683638,-0.04266673909343885,0.0,0.0,0.0,0.0,0.009277160976895838,0.00535901865693755,-0.0007461887225872488
0.16800000000000012,-9.28324215304092e-05,0.0001195124439079573,0.08728495485300389,-0.0005561631784802135,0.0007155720896871952,0.8024474011686792,0.00032865423039419764,0.0002553703873518414,0.0005397209521787329,-1.1359403037149562,1.0087659935137985,-0.0630333878732857,0.0,0.0,0.0,0.0,-0.019825623358618427,-0.017606638430735278,-0.0010945170191121179
