T,Px,Py,Pz,Vx,Vy,Vz,Roll,Pitch,Yaw,R_rate,P_rate,Y_rate,Wb1,Wb2,Wb3
5.000000000000004,4.0,2.0336564633485124e-14,1.0,-2.555568082072435e-14,5.026548245743669,0.0,2.75439144904065e-15,-0.5725312783979288,0.0,0.7222253729258771,3.9938118050416335e-15,2.3717997378693877e-15,0.7222253729258784,3.993811805041639e-15,1.9935743374064413e-15
5.001000000000005,3.999996841727007,0.0050265469228307465,1.0,-0.006316545154275781,5.0265442769407755,0.0,0.0006807973313815127,-0.5725309188537555,0.0,0.7218983689985021,0.00098667275424746,0.0005866111141278002,0.7222161720816629,0.0009870082033906602,0.0004923938768563017
5.002000000000005,3.9999873669130164,0.010053085908041014,1.0,-0.012633080333843489,5.026532370538365,0.0,0.0013615939032275376,-0.5725298402208034,0.0,0.7215717786797943,0.0019724013184930604,0.001173933694483668,0.7222077692265237,0.0019737430154484156,0.0009840436035443772
5.003000000000005,3.999971575572989,0.015079609018052869,1.0,-0.018949595564048516,5.026512526555237,0.0,0.002042388956004683,-0.5725280424977764,0.0,0.7212469929137976,0.0029571759032226935,0.0017618627678518118,0.7222014973674484,0.002960194318835084,0.0014748629014388263
5.004000000000006,3.999949467731863,0.02010610831530377,1.0,-0.02526608087025559,5.02648474502273,0.0,0.0027231817301743085,-0.572525525682514,0.0,0.7209248730601518,0.003940984445869731,0.0023502626263777362,0.7221981432746282,0.00394634941499998,0.0019647396955301166
5.005000000000006,3.9999210434245485,0.025132575862265236,1.0,-0.03158252627787225,5.0264490259847125,0.0,0.003403971466191387,-0.5725222897719916,0.0,0.7206059031679716,0.004923813913032723,0.0029389843756316963,0.7221981092631141,0.004932194288741184,0.0024535508674330972
5.0060000000000064,3.9998863026959315,0.030159003721458907,1.0,-0.037898921812369014,5.026405369497591,0.0,0.004084757404503014,-0.5725183347623205,0.0,0.7202902937309181,0.005905651186808102,0.0035278776819080244,0.7222015233130298,0.005917714497214525,0.0029411721290450088
5.007000000000007,3.9998452456008726,0.03518538395546911,1.0,-0.04421525749929517,5.026353775630305,0.0,0.0047655387855464445,-0.5725136606487482,0.0,0.7199780575935908,0.00688648367311653,0.004116798567508714,0.7222083191999543,0.006902895805433163,0.0034274845721106568
5.008000000000007,3.9997978722042067,0.040211708626958914,1.0,-0.050531523364298975,5.026294244464329,0.0,0.005446314849747595,-0.572508267425658,0.0,0.7196690680767509,0.007866299702027518,0.004705614304188862,0.7222182972718917,0.007887724627236622,0.003912378777346592
5.0090000000000074,3.9997441825807427,0.0452379697986685,1.0,-0.05684770943312556,5.02622677609367,0.0,0.006127084837517166,-0.5725021550865691,0.0,0.7193631042885817,0.008845088766155184,0.00529420612837758,0.7222311712320427,0.008872188309904107,0.004395757092053977
5.010000000000008,3.999684176815264,0.050264159533448954,1.0,-0.06316380573165944,5.026151370624869,0.0,0.006807847989251543,-0.5724953236241376,0.0,0.719059886338169,0.009822841634501018,0.005882470348898101,0.7222466039527689,0.009856275294328783,0.004877534556449082
5.011000000000008,3.9996178550025276,0.05529026989426063,1.0,-0.06947980228592243,5.0260680281770025,0.0,0.007488603545328918,-0.5724877730301549,0.0,0.718759102246198,0.01079955037425539,0.0064703183177180785,0.7222642343706792,0.010839975179788519,0.005357638874558156
5.0120000000000084,3.999545217247265,0.06031629294418922,1.0,-0.07579568912209389,5.02597674888168,0.0,0.008169350746107792,-0.5724795032955495,0.0,0.7184604279804087,0.011775208308474654,0.007057675646763719,0.7222836970979188,0.011823278719307169,0.005836009751839349
5.013000000000009,3.9994662636641807,0.06534222074645829,1.0,-0.08211145626652637,5.025877532883044,0.0,0.008850088831925012,-0.5724705144103861,0.0,0.7181635418687062,0.012749809932519625,0.007644480971110006,0.7223046361652797,0.012806177767707743,0.006312597852056941
5.014000000000009,3.9993809943779532,0.07036804536444538,1.0,-0.08842709374576596,5.025770380337768,0.0,0.009530817043094286,-0.5724608063638662,0.0,0.7178681345125086,0.01372335080706857,0.008230684483154413,0.7223267141414207,0.013788665200154307,0.006787363562224428
5.0150000000000095,3.999289409523235,0.07539375886168032,1.0,-0.0947425915865501,5.025655291415062,0.0,0.010211534619902282,-0.5724503791443281,0.0,0.7175739151890078,0.014695827440827364,0.008816246397076202,0.7223496177031967,0.014770734814756513,0.007260275699492666
5.01600000000001,3.9991915092446506,0.08041935330187902,1.0,-0.10105793981585008,5.025532266296668,0.0,0.010892240802609556,-0.5724392327392466,0.0,0.7172806155875376,0.015667237172081065,0.009401135449815756,0.7223730605598575,0.01575238122907544,0.007731310249226004
5.01700000000001,3.9990872936967983,0.08544482074894193,1.0,-0.10737312846086908,5.025401305176859,0.0,0.011572934831446656,-0.572427367135234,0.0,0.7169879915802051,0.01663757805502118,0.009985327503934981,0.7223967844666966,0.01673359977724792,0.008200449189141371
5.0180000000000105,3.998976763044248,0.09047015326696996,1.0,-0.11368814754906217,5.02526240826244,0.0,0.012253615946612631,-0.5724147823180398,0.0,0.716695823589806,0.01760684875440179,0.010568804287820218,0.7224205589103883,0.017714386412056495,0.008667679429250525
5.019000000000011,3.998859917461543,0.09549534292027713,1.0,-0.12000298710815227,5.025115575772748,0.0,0.012934283388273076,-0.572401478272551,0.0,0.7164039159956048,0.018575048450337018,0.01115155228783527,0.7224441799145127,0.018694737614466966,0.009132991879820383
5.020000000000011,3.9987367571331984,0.10052038177340306,1.0,-0.12631763716614575,5.024960807939651,0.0,0.013614936396558152,-0.5723874549827918,0.0,0.7161120959130988,0.019542176753878208,0.011733561793266182,0.7224674683018497,0.019674650311890397,0.009596380648001947
5.0210000000000115,3.9986072822537015,0.10554526189112906,1.0,-0.1326320877513527,5.024798105007551,0.0,0.014295574211561107,-0.5723727124319248,0.0,0.7158202115979939,0.020508233633245904,0.012314826086389726,0.7224902676595147,0.020654121805564953,0.010057842356632925
5.022000000000012,3.9984714930275103,0.11056997533847643,1.0,-0.13894632889238487,5.024627467233375,0.0,0.014976196073334381,-0.5723572506022505,0.0,0.715528130656045,0.021473219350126492,0.012895340765228228,0.722512442181852,0.021633149706892122,0.010517375574718142
5.023000000000012,3.9983293896690553,0.11559451418074035,1.0,-0.145260350618198,5.024448894886586,0.0,0.01565680122189053,-0.5723410694752076,0.0,0.7152357381870073,0.022437134405207792,0.013475103184352577,0.7225338745114035,0.02261173188224068,0.01097498034724878
5.0240000000000125,3.998180972402736,0.12061887048348814,1.0,-0.15157414295809005,5.024262388249173,0.0,0.01633738889719834,-0.5723241690313734,0.0,0.7149429349502726,0.02339997949199418,0.014054111998541207,0.7225544636572945,0.023589866405523175,0.011430657811562692
5.025000000000013,3.998026241462924,0.1256430363125754,1.0,-0.157887695941721,5.024067947615654,0.0,0.017017958339181325,-0.572306549250464,0.0,0.7146496356093592,0.024361755457947262,0.014632366794611438,0.722574123040248,0.02456755151779291,0.011884409887880344
5.026000000000013,3.997865197093961,0.13066700373415852,1.0,-0.16420099959912898,5.0238655732930795,0.0,0.017698508787715776,-0.5722882101113346,0.0,0.7143557670901497,0.025322463272018245,0.01520986779781404,0.7225927786917511,0.02554478559307827,0.012336239032559234
5.0270000000000135,3.997697839550158,0.13569076481471068,1.0,-0.17051404396075018,5.023655265601025,0.0,0.01837903948262928,-0.5722691515919797,0.0,0.7140612670717963,0.02628210399770994,0.01578661564056203,0.7226103676196646,0.026521567109702087,0.012786148043773187
5.028000000000014,3.9975241690957946,0.14071431162102038,1.0,-0.17682681905741698,5.023437024871596,0.0,0.019059549663696815,-0.5722493736695333,0.0,0.7137660826179831,0.027240678770880676,0.016362611182736426,0.7226268363421368,0.027497894626375457,0.013234139910563495
5.029000000000014,3.9973441860051206,0.14573763622022504,1.0,-0.18313931492040028,5.023210851449424,0.0,0.019740038570641678,-0.5722288763202696,0.0,0.7134701689485895,0.028198188781601175,0.016937855374275917,0.7226421395848305,0.028473766762429697,0.013680217697441594
5.0300000000000145,3.997157890562354,0.15076073067980944,1.0,-0.18945152158140746,5.0229767456916665,0.0,0.020420505443131606,-0.572207659519603,0.0,0.713173488346794,0.02915463525943567,0.017512349152108718,0.7226562391321993,0.029449182181590372,0.014124384457861728
5.031000000000015,3.996965283061681,0.15578358706762183,1.0,-0.19576342907260266,5.02273470796801,0.0,0.021100949520777294,-0.572185723242088,0.0,0.7128760091935351,0.03011001946161987,0.01808609336473882,0.722669102821106,0.030424139578785134,0.014566643170937048
5.032000000000015,3.9967663638072546,0.16080619745188632,1.0,-0.2020750274266223,5.022484738660665,0.0,0.021781370043130386,-0.5721630674614206,0.0,0.7125777051195228,0.03106434266366627,0.018659088718890115,0.7226807036639417,0.03139863766952402,0.015006996696691404
5.0330000000000155,3.996561133113196,0.16582855390121912,1.0,-0.2083863066765956,5.022226838164366,0.0,0.022461766249682068,-0.5721396921504378,0.0,0.7122785542641938,0.03201760615199735,0.01923133574357284,0.7226910190881313,0.03237267518145351,0.015445447745948044
5.034000000000016,3.9963495913035914,0.17085064848462678,1.0,-0.21469725685614224,5.021961006886374,0.0,0.023142137379859123,-0.5721155972811179,0.0,0.7119785386308799,0.0329698112182587,0.01980283476775731,0.722700030279223,0.03334625084773201,0.01588199886164694
5.035000000000016,3.9961317387124953,0.17587247327154,1.0,-0.2210078679994149,5.021687245246473,0.0,0.023822482673024874,-0.5720907828245816,0.0,0.7116776435277462,0.033920959155028976,0.020373585908548368,0.7227077216154391,0.034319363401935796,0.01631665240897813
5.0360000000000165,3.995907575683926,0.18089402033181193,1.0,-0.2273181301410972,5.021405553676969,0.0,0.024502801368475297,-0.5720652487510918,0.0,0.7113758570846342,0.034871051252663834,0.020943589067329352,0.7227140801824465,0.03529201157422253,0.016749410572203586
5.037000000000017,3.9956771025718685,0.1859152817357344,1.0,-0.23362803331642393,5.021115932622693,0.0,0.025183092705437542,-0.5720389950300538,0.0,0.7110731698366628,0.03582008879707268,0.021512843931851267,0.7227190953581089,0.036264194088540216,0.01718027535646555
5.038000000000017,3.99544031974027,0.19093624955405025,1.0,-0.23993756756119666,5.020818382540995,0.0,0.025863355923067953,-0.5720120216300166,0.0,0.7107695743662258,0.03676807306824581,0.02208134998264299,0.7227227584579748,0.037235909660687606,0.017609248593216543
5.0390000000000175,3.995197227563044,0.1959569158579695,1.0,-0.2462467229118041,5.020512903901747,0.0,0.026543590260450636,-0.5719843285186723,0.0,0.7104650649958729,0.03771500533938399,0.022649106502459142,0.7227250624332949,0.0382071569970668,0.018036331948192656
5.040000000000018,3.9949478264240654,0.20097727271916765,1.0,-0.25255548940521977,5.020199497187343,0.0,0.0272237949565935,-0.5719559156628571,0.0,0.7101596375253316,0.03866088687650046,0.02321611258775415,0.7227260016142769,0.03917793479398696,0.01846152693108068
5.041000000000018,3.9946921167171734,0.2059973122098195,1.0,-0.2588638570790448,5.0198781628926925,0.0,0.02790396925042926,-0.5719267830285515,0.0,0.7098532890067144,0.03960571893840149,0.02378236716140594,0.7227255714922027,0.04014824173741524,0.018884834906226555
5.0420000000000185,3.9944300988461676,0.2110170264025975,1.0,-0.2651718159715055,5.019548901525228,0.0,0.028584112380811506,-0.5718969305808809,0.0,0.7095460175526563,0.04054950277694515,0.02434786898607921,0.7227237685348228,0.041118076503064926,0.019306257103873653
5.043000000000019,3.994161773224811,0.21603640737068774,1.0,-0.2714793561214738,5.019211713604899,0.0,0.02926422358651321,-0.5718663582841161,0.0,0.7092378221727841,0.04149223963751712,0.024912616677780518,0.7227205900301831,0.04208743775675095,0.019725794631554855
5.044000000000019,3.9938871402768257,0.22105544718780257,1.0,-0.2777864675684828,5.018866599664169,0.0,0.029944302106224827,-0.5718350661016737,0.0,0.708928702634503,0.04243393075966115,0.02547660871926545,0.7227160339546918,0.04305632415494281,0.020143448485353755
5.0450000000000195,3.9936062004358948,0.22607413792819658,1.0,-0.2840931403527472,5.018513560248022,0.0,0.030624347178552773,-0.5718030539961164,0.0,0.7086186593446157,0.043374577377817344,0.02603984347305477,0.7227100988618032,0.04402473434546128,0.020559219560831277
5.04600000000002,3.9933189541456606,0.23109247166666494,1.0,-0.2903993645151608,5.0181525959139535,0.0,0.03130435804201555,-0.5717703219291534,0.0,0.7083076932487614,0.04431418072212656,0.02660231919388709,0.7227027837882177,0.044992666968270756,0.020973108663473784
5.04700000000002,3.9930254018597244,0.23611044047857727,1.0,-0.2967051300973394,5.017783707231977,0.0,0.03198433393504467,-0.5717368698616418,0.0,0.7079958057460658,0.04525274201928001,0.02716403404050137,0.7226940881749286,0.04596012065634153,0.02138511651857287
5.0480000000000205,3.992725544041645,0.24112803643987585,1.0,-0.30301042714161835,5.017406894784617,0.0,0.03266427409598079,-0.5717026977535861,0.0,0.7076829986167654,0.04619026249337613,0.027724986086672634,0.7226840118008375,0.04692709403653909,0.021795243780474084
5.049000000000021,3.992419381164939,0.24614525162709178,1.0,-0.30931524569107305,5.017022159166912,0.0,0.03334417776307224,-0.5716678055641385,0.0,0.7073692739608807,0.047126743366776545,0.028285173331473,0.7226725547269989,0.04789358573052858,0.022203491041170847
5.050000000000021,3.9921069137130796,0.25116207811735747,1.0,-0.31561957578953437,5.016629500986413,0.0,0.034024044174473037,-0.5716321932516012,0.0,0.7070546341462847,0.04806218586094206,0.028844593708746716,0.7226597172498344,0.04885959435567188,0.022609858838235047
5.0510000000000215,3.9917881421794954,0.2561785079884191,1.0,-0.32192340748160464,5.01622892086318,0.0,0.03470387256824095,-0.5715958607734252,0.0,0.7067390817647606,0.048996591197239384,0.029403245095810344,0.7226454998619146,0.04982511852590514,0.023014347662093867
5.052000000000022,3.9914630670675697,0.2611945333186527,1.0,-0.32822673081267756,5.015820419429784,0.0,0.03538366218233602,-0.571558808086211,0.0,0.7064226195948369,0.04992996059771047,0.02996112532140149,0.7226299032191124,0.05079015685258649,0.023416957962673124
5.053000000000022,3.991131688890641,0.26621014618706257,1.0,-0.33452953582893624,5.015403997331305,0.0,0.03606341225461671,-0.5715210351457101,0.0,0.706105250570378,0.05086229528579649,0.030518232172908225,0.7226129281131198,0.051754707945303485,0.02381769015543453
5.0540000000000225,3.990794008172001,0.2712253386733149,1.0,-0.34083181257739587,5.014979655225329,0.0,0.036743122022840795,-0.5714825419068253,0.0,0.7057869777540448,0.05179359648702183,0.031074563402923555,0.7225945754484714,0.05271877041264459,0.024216544626844028
5.055000000000023,3.990450025444893,0.2762401028577362,1.0,-0.34713355110590116,5.014547393781951,0.0,0.03742279072466151,-0.5714433283236106,0.0,0.705467804314888,0.05272386542962383,0.03163011673516105,0.7225748462233511,0.05368234286291872,0.024613521739302636
5.056000000000023,3.990099741252513,0.2812544308213293,1.0,-0.3534347414631467,5.014107213683772,0.0,0.03810241759762605,-0.5714033943492725,0.0,0.7051477335094373,0.05365310334513752,0.032184889869782254,0.7225537415135783,0.05464542390483084,0.025008621835581876
5.0570000000000235,3.9897431561480072,0.2862683146457859,1.0,-0.35973537369869296,5.013659115625893,0.0,0.03878200187917368,-0.5713627399361704,0.0,0.7048267686657433,0.05458131146893154,0.0327388804881789,0.7225312624592494,0.05560801214810953,0.025401845242800546
5.058000000000024,3.9893802706944723,0.2912817464135027,1.0,-0.36603543786298604,5.013203100315926,0.0,0.039461542806634185,-0.5713213650358173,0.0,0.7045049131699228,0.055508491040697897,0.03329208625725535,0.722507410253613,0.05657010620408773,0.0257931922759811
5.059000000000024,3.989011085464954,0.29629471820757936,1.0,-0.3723349240073557,5.012739168473979,0.0,0.04014103961722407,-0.5712792695988803,0.0,0.7041821704548157,0.056434643304893145,0.03384450483325235,0.7224821861338071,0.057531704686234295,0.026182663241220445
5.0600000000000245,3.9886356010424464,0.3013072221118529,1.0,-0.37863382218405806,5.012267320832663,0.0,0.040820491548047434,-0.5712364535751814,0.0,0.7038585439904247,0.057359769511143174,0.034396133865159086,0.7224555913731563,0.05849280621064789,0.026570258438514308
5.061000000000025,3.9882538180198908,0.30631925021089534,1.0,-0.384932122446273,5.011787558137093,0.0,0.04149989783609215,-0.5711929169136982,0.0,0.7035340372758623,0.05828387091460024,0.03494697099774441,0.7224276272747693,0.05945340939650143,0.026955978164262
5.062000000000025,3.987865737000174,0.31133079459003027,1.0,-0.3912298148481248,5.011299881144877,0.0,0.04217925771822835,-0.5711486595625641,0.0,0.7032086538325694,0.059206948776264964,0.03549701387424982,0.722398295166225,0.06041351286644994,0.027339822713486853
5.0630000000000255,3.9874713585961294,0.316341847335345,1.0,-0.3975268894446975,5.010804290626124,0.0,0.04285857043120652,-0.57110368146907,0.0,0.7028823971986049,0.06012900436327178,0.03604626013877551,0.7223675963951631,0.06137311524699975,0.02772179238179899
5.064000000000026,3.9870706834305336,0.32135240053370684,1.0,-0.40382333629205525,5.01030078736344,0.0,0.043537835211656,-0.5710579825796636,0.0,0.7025552709238402,0.06105003894914174,0.03659470743839156,0.7223355323256303,0.06233221516884317,0.02810188746712724
5.065000000000026,3.986663712136109,0.32636244627276123,1.0,-0.4101191454472401,5.009789372151925,0.0,0.044217051296081125,-0.5710115628399516,0.0,0.7022272785659166,0.06197005381400079,0.03714235342499996,0.7223021043350546,0.06329081126715651,0.028480108271242355
5.0660000000000265,3.9862504453555174,0.3313719766409657,1.0,-0.41641430696831455,5.009270045799174,0.0,0.04489621792086218,-0.5709644221946992,0.0,0.701898423686843,0.0628890502447767,0.0376891957569806,0.7222673138117419,0.06424890218187497,0.02885645510109844
5.067000000000027,3.9858308837413636,0.3363809837275879,1.0,-0.42270881091435913,5.008742809125272,0.0,0.0455753343222515,-0.5709165605878318,0.0,0.7015687098501354,0.06380702953536314,0.03823523210063568,0.7222311621528065,0.06520648655793221,0.029230928270005986
5.068000000000027,3.9854050279561934,0.3413894596227221,1.0,-0.4290026473454932,5.008207662962801,0.0,0.04625439973637208,-0.5708679779624347,0.0,0.7012381406184146,0.06472399298676312,0.03878046013146129,0.722193650762464,0.06616356304547788,0.029603528098659706
5.0690000000000275,3.9849728786724903,0.3463973964173011,1.0,-0.4352958063228898,5.007664608156826,0.0,0.04693341339921551,-0.5708186742607549,0.0,0.7009067195513811,0.06563994190721009,0.03932487753526201,0.7221547810506187,0.06712013030007045,0.029974254916035063
5.070000000000028,3.9845344365726776,0.3514047862031127,1.0,-0.44158827790879635,5.007113645564908,0.0,0.0476123745466406,-0.5707686494242012,0.0,0.7005744502041211,0.06655487761227036,0.039868482009127994,0.722114554431705,0.06807618698284981,0.030343109060169515
5.071000000000028,3.984089702349115,0.3564116210727979,1.0,-0.44788005216653237,5.00655477605709,0.0,0.04829128241436954,-0.5707179033933456,0.0,0.7002413361256781,0.06746880142492377,0.040411271262286795,0.722072972323728,0.06903173176068629,0.030710090878839354
5.0720000000000285,3.983638676704099,0.3614178931198845,1.0,-0.45417111916053204,5.005988000515905,0.0,0.04897013623798873,-0.5706664361079231,0.0,0.6999073808578543,0.06838171467563531,0.04095324301685073,0.722030036147477,0.06998676330631913,0.031075200730148536
5.073000000000029,3.98318136034986,0.36642359443878564,1.0,-0.4604614689563419,5.005413319836367,0.0,0.04964893525294504,-0.5706142475068333,0.0,0.6995725879342052,0.06929361870240536,0.041494395008463913,0.7219857473258764,0.0709412802984718,0.03143843898303433
5.074000000000029,3.982717754008563,0.3714287171248157,1.0,-0.46675109162064093,5.004830734925977,0.0,0.050327678694544305,-0.5705613375281413,0.0,0.6992369608791967,0.07020451485081027,0.04203472498686654,0.7219401072834568,0.07189528142195635,0.03179980601770349
5.0750000000000295,3.982247858412306,0.37643325327420274,1.0,-0.4730399772212565,5.004240246704716,0.0,0.05100636579794933,-0.5705077061090779,0.0,0.6989005032074953,0.07111440447403032,0.04257423071638358,0.7218931174459149,0.0728487653677638,0.03215930222600555
5.07600000000003,3.981771674303119,0.38143719498410106,1.0,-0.47932811582717977,5.003641856105044,0.0,0.05168499579817804,-0.5704533531860408,0.0,0.6985632184233742,0.07202328893286757,0.043112909976347695,0.7218447792397561,0.073801730833143,0.032516928011751135
5.07700000000003,3.9812892024329596,0.3864405343526072,1.0,-0.48561549750858596,5.003035564071901,0.0,0.05236356793010198,-0.5703982786945957,0.0,0.6982251100202165,0.07293116959575445,0.04365076056146415,0.7217950940920013,0.07475417652166924,0.03287268379098208
5.0780000000000305,3.9808004435637185,0.39144326347875846,1.0,-0.49190211233683256,5.002421371562707,0.0,0.05304208142844247,-0.5703424825694767,0.0,0.6978861814800963,0.07383804783875125,0.044187780282122696,0.7217440634299438,0.07570610114330029,0.03322656999219753
5.079000000000031,3.9803053984672125,0.396445374462566,1.0,-0.49818795038450076,5.001799279547356,0.0,0.05372053552777155,-0.5702859647445875,0.0,0.69754643627343,0.074743925045542,0.044723966964668266,0.721691688680952,0.07665750341443031,0.03357858705654545
5.080000000000031,3.979804067925185,0.40144685940501396,1.0,-0.5044730017253946,5.001169289008215,0.0,0.054398929462508086,-0.570228725153002,0.0,0.6972058778586827,0.07564880260741794,0.04525931845162844,0.7216379712723062,0.07760838205792994,0.03392873543797866
5.0810000000000315,3.9792964527293053,0.40644771040807487,1.0,-0.5107572564345599,5.000531400940123,0.0,0.05507726246691641,-0.5701707637269654,0.0,0.6968645096821239,0.07655268192325769,0.04579383260190793,0.7215829126310656,0.07855873580318233,0.03427701560338334
5.082000000000032,3.9787825536811674,0.4114479195747224,1.0,-0.5170407045883008,4.999885616350397,0.0,0.055755533775104296,-0.5701120803978952,0.0,0.6965223351776224,0.07745556439950195,0.04632750729095233,0.7215265141839561,0.07950856338611291,0.034623428032682174
5.083000000000032,3.9782623715922876,0.4164474790089473,1.0,-0.5233233362641994,4.999231936258815,0.0,0.05643374262102155,-0.5700526750963819,0.0,0.6961793577664754,0.07835745145012402,0.04686034041088559,0.7214687773572815,0.08045786354921415,0.03496797321891571
5.0840000000000325,3.9777359072841048,0.42144638081575575,1.0,-0.5296051415411138,4.998570361697629,0.0,0.05711188823845616,-0.5699925477521902,0.0,0.6958355808572659,0.07925834449659311,0.047392329870622106,0.7214097035768459,0.0814066350415623,0.035310651668303154
5.085000000000033,3.977203161587978,0.426444617101203,1.0,-0.5358861104992206,4.997900893711556,0.0,0.057789969861035226,-0.5699316982942594,0.0,0.6954910078457439,0.08015824496784044,0.04792347359596239,0.7213492942678916,0.08235487661883652,0.035651463900288956
5.086000000000033,3.9766641353451853,0.4314421799723917,1.0,-0.5421662332200125,4.997223533357777,0.0,0.058467986722221164,-0.569870126650705,0.0,0.6951456421147254,0.08105715430021579,0.04845376952966666,0.7212875508550453,0.08330258704332738,0.03599041044757204
5.0870000000000335,3.9761188294069227,0.4364390615374879,1.0,-0.5484454997863183,4.996538281705934,0.0,0.05914593805531018,-0.5698078327488197,0.0,0.6947994870340144,0.08195507393744439,0.048983215631514865,0.721224474762275,0.08424976508394552,0.036327491856123544
5.088000000000034,3.9755672446343024,0.4414352539057336,1.0,-0.5547239002823191,4.995845139838136,0.0,0.0598238230934304,-0.5697448165150736,0.0,0.69445254596033,0.08285200533058087,0.04951180987835278,0.7211600674128501,0.0851964095162266,0.03666270868519327
5.089000000000034,3.9750093818983525,0.44643074918746267,1.0,-0.5610014247935681,4.995144108848947,0.0,0.060501641069540445,-0.5696810778751159,0.0,0.694104822237254,0.08374794993796152,0.05003955026412591,0.7210943302293094,0.086142519122334,0.036996061507306326
5.0900000000000345,3.974445242080014,0.451425539494099,1.0,-0.5672780634069882,4.994435189845392,0.0,0.06117939121642549,-0.5696166167537757,0.0,0.6937563191951833,0.0846429092251518,0.05056643479990176,0.7210272646334324,0.08708809269105632,0.03732755090825046
5.091000000000035,3.973874826070141,0.45641961693819055,1.0,-0.5735538062109148,4.993718383946949,0.0,0.06185707276669832,-0.5695514330750632,0.0,0.693407040151291,0.08553688466489823,0.05109246151388626,0.720958872046213,0.08803312901780895,0.03765717748705826
5.092000000000035,3.9732981347694984,0.46141297363340733,1.0,-0.5798286432950933,4.992993692285554,0.0,0.06253468495279549,-0.5694855267621702,0.0,0.6930569884094971,0.08642987773707278,0.05161762845142849,0.7208891538878383,0.0889776269046275,0.03798494185598053
5.0930000000000355,3.9727151690887603,0.4664056016945575,1.0,-0.5861025647506997,4.992261116005593,0.0,0.06321222700697576,-0.5694188977374718,0.0,0.6927061672604441,0.08732188992861935,0.05214193367502052,0.7208181115776666,0.08992158516016281,0.03831084464045551
5.094000000000036,3.972125929948509,0.4713974932376,1.0,-0.5923755606703554,4.991520656263904,0.0,0.06388969816131833,-0.5693515459225269,0.0,0.6923545799814752,0.08821292273349803,0.052665375264290396,0.720745746534209,0.09086500259967371,0.038634886479072754
5.095000000000036,3.971530418279233,0.4763886403796601,1.0,-0.5986476211481481,4.990772314229774,0.0,0.06456709764772131,-0.5692834712380799,0.0,0.6920022298366201,0.0891029776526296,0.05318795131599061,0.7206720601751108,0.09180787804501936,0.038957068023533416
5.0960000000000365,3.9709286350213273,0.48137903523902825,1.0,-0.6049187362796293,4.9900160910849385,0.0,0.06524442469789792,-0.5692146736040609,0.0,0.6916491200765842,0.0899920561938361,0.05370965994397961,0.7205970539171357,0.09275021032464709,0.03927738993860546
5.097000000000037,3.97032058112509,0.48636866993519323,1.0,-0.6111888961618568,4.989251988023576,0.0,0.06592167854337741,-0.5691451529395878,0.0,0.6912952539387374,0.09088015987178667,0.05423049927920343,0.720520729176149,0.09369199827358575,0.03959585290207843
5.098000000000037,3.9697062575507203,0.4913575365888408,1.0,-0.6174580908933921,4.98848000625231,0.0,0.06659885841550131,-0.5690749091629665,0.0,0.690940634647109,0.0917672902079369,0.05475046746966961,0.7204430873671017,0.09463324073343182,0.03991245760471283
5.0990000000000375,3.9690856652683197,0.4963456273218696,1.0,-0.6237263105743212,4.987700146990204,0.0,0.06727596354542188,-0.5690039421916928,0.0,0.6905852654123843,0.0926534487304708,0.05526956268042022,0.7203641299040168,0.0955739365523377,0.04022720475018872
5.100000000000038,3.968458805257888,0.5013329342574036,1.0,-0.6299935453062695,4.986912411468763,0.0,0.06795299316410029,-0.5689322519424527,0.0,0.6902291494319011,0.09353863697424163,0.05578778309350164,0.7202838581999722,0.09651408458499894,0.040540095055051927
5.101000000000038,3.967825678509322,0.5063194495198041,1.0,-0.6362597851924179,4.986116800931929,0.0,0.06862994650230465,-0.5688598383311244,0.0,0.6898722898896501,0.0944228564807125,0.056305126907931824,0.7202022736670887,0.09745368369264064,0.04085112924865842
5.1020000000000385,3.967186286022416,0.5113051652346866,1.0,-0.6425250203375227,4.985313316636079,0.0,0.06930682279060864,-0.5687867012727787,0.0,0.6895146899562749,0.09530610879789742,0.05682159233966631,0.7201193777165128,0.09839273274300418,0.04116030807311788
5.103000000000039,3.966540628806858,0.5162900735289184,1.0,-0.6487892408479137,4.984501959850025,0.0,0.06998362125938765,-0.568712840681681,0.0,0.6891563527890763,0.09618839548029907,0.05733717762156003,0.7200351717584057,0.09933123061033008,0.041467632283234405
5.104000000000039,3.965888707882229,0.5212741665306524,1.0,-0.655052436831536,4.983682731855011,0.0,0.0706603411388197,-0.5686382564712914,0.0,0.6887972815320118,0.0970697180888525,0.057851881003331586,0.7199496572019255,0.10026917617534688,0.04177310264644883
5.1050000000000395,3.965230524278,0.5262574363693254,1.0,-0.6613145983979483,4.982855633944707,0.0,0.07133698165888172,-0.5685629485542669,0.0,0.6884374793157023,0.09795007819086231,0.058365700751522184,0.719862835455215,0.10120656832525315,0.042076719942777556
5.10600000000004,3.9645660790335344,0.5312398751756742,1.0,-0.6675757156583426,4.982020667425217,0.0,0.07201354204934803,-0.568486916842462,0.0,0.688076949257437,0.09882947735994371,0.05887863514945561,0.7197747079253883,0.10214340595370278,0.04237848496475217
5.10700000000004,3.9638953731980813,0.5362214750817477,1.0,-0.6738357787255603,4.981177833615066,0.0,0.07269002153978849,-0.5684101612469302,0.0,0.6877156944611772,0.09970791717596175,0.05939068249719606,0.7196852760185147,0.10307968796078856,0.042678398517357746
5.1080000000000405,3.9632184078307757,0.5412022282209232,1.0,-0.6800947777141116,4.980327133845201,0.0,0.07336641935956706,-0.5683326816779248,0.0,0.6873537180175636,0.1005853992249723,0.05990184111150619,0.7195945411396056,0.10401541325302716,0.04297646141797131
5.109000000000041,3.9625351840006395,0.5461821267279049,1.0,-0.6863527027401741,4.979468569458995,0.0,0.07404273473783798,-0.5682544780449011,0.0,0.6869910230039241,0.101461925099159,0.06041210932580174,0.7195025046926007,0.10495058074333952,0.04327267449629834
5.110000000000041,3.9618457027865763,0.5511611627387565,1.0,-0.6926095439216343,4.97860214181224,0.0,0.07471896690354672,-0.5681755502565166,0.0,0.6866276124842793,0.10233749639677713,0.060921485490109645,0.7194091680803539,0.1058851893510384,0.043567038594311484
5.1110000000000415,3.961149965277371,0.5561393283909006,1.0,-0.698865291378086,4.977727852273142,0.0,0.07539511508542622,-0.5680958982206324,0.0,0.6862634895093509,0.10321211472209099,0.06142996797102166,0.7193145327046184,0.10681923800180881,0.04385955456618665
5.112000000000042,3.960447972571688,0.5611166158231342,1.0,-0.7051199352308499,4.976845702222322,0.0,0.07607117851199545,-0.5680155218443156,0.0,0.6858986571165698,0.10408578168531447,0.06193755515164895,0.719218599966033,0.10775272562769156,0.04415022327823985
5.113000000000042,3.959739725778069,0.5660930171756411,1.0,-0.7113734656029899,4.975955693052818,0.0,0.07674715641155747,-0.567934421033839,0.0,0.6855331183300858,0.1049584989025514,0.0624442454315763,0.7191213712641092,0.1086856511670662,0.044439045608864
5.1140000000000425,3.959025226014933,0.5710685245900077,1.0,-0.7176258726193321,4.975057826170073,0.0,0.07742304801219806,-0.5678525956946833,0.0,0.6851668761607757,0.10583026799573617,0.06295003722681577,0.7190228479972165,0.10961801356463417,0.044726022448465484
5.115000000000043,3.958304474410573,0.5760431302092217,1.0,-0.7238771464064638,4.974152102991946,0.0,0.07809885254178196,-0.5677700457315387,0.0,0.6847999336062526,0.10670109059257177,0.06345492896975846,0.7189230315625675,0.11054981177139893,0.04501115469939973
5.116000000000043,3.9575774721031536,0.5810168261777053,1.0,-0.7301272770927748,4.973238524948693,0.0,0.07877456922795371,-0.5676867710483053,0.0,0.6844322936508753,0.10757096832647361,0.06395891910912907,0.7188219233562053,0.11148104474465184,0.04529444327590878
5.1170000000000435,3.9568442202407104,0.5859896046413137,1.0,-0.7363762548084554,4.97231709348298,0.0,0.07945019729813393,-0.5676027715480952,0.0,0.6840639592657601,0.10843990283650812,0.06446200610993724,0.7187195247729896,0.11241171144795249,0.045575889104057
5.118000000000044,3.956104719981149,0.5909614577473509,1.0,-0.742624069685517,4.971387810049873,0.0,0.080125735979518,-0.5675180471332335,0.0,0.6836949334087893,0.10930789576733385,0.06496418845342973,0.7186158372065824,0.11334181085111107,0.04585549312166747
5.119000000000044,3.955358972492241,0.5959323776445822,1.0,-0.7488707118578071,4.9704506761168386,0.0,0.08080118449907399,-0.56743259770526,0.0,0.6833252190246216,0.11017494876914226,0.06546546463704213,0.7185108620494336,0.11427134193017062,0.04613325627825841
5.1200000000000445,3.9546069789516225,0.6009023564832501,1.0,-0.7551161714610294,4.969505693163737,0.0,0.08147654208354134,-0.5673464231649297,0.0,0.6829548190447052,0.11104106349759951,0.06596583317435092,0.718404600692769,0.11520030366738983,0.046409179534979916
5.121000000000045,3.9538487405467952,0.6058713864150725,1.0,-0.7613604386327418,4.968552862682827,0.0,0.08215180795942711,-0.5672595234122156,0.0,0.6825837363872879,0.11190624161378525,0.06646529259502328,0.7182970545265758,0.1161286950512223,0.046683263864549615
5.122000000000045,3.9530842584751205,0.6108394595932767,1.0,-0.7676035035123989,4.9675921861787575,0.0,0.08282698135300691,-0.5671718983463091,0.0,0.6822119739574269,0.1127704847841374,0.06696384144477013,0.7181882249395882,0.11705651507630223,0.04695551025119045
5.1230000000000455,3.95231353394382,0.6158065681725968,1.0,-0.7738453562413489,4.966623665168568,0.0,0.0835020614903211,-0.5670835478656211,0.0,0.6818395346470034,0.11363379468039134,0.06746147828529599,0.718078113319275,0.11798376274342381,0.047225919690566755
5.124000000000046,3.9515365681699732,0.6207727043092903,1.0,-0.7800859869628541,4.965647301181685,0.0,0.08417704759717339,-0.566994471867785,0.0,0.6814664213347328,0.11449617297952236,0.06795820169424978,0.717966721051826,0.11891043705952359,0.047494493189721175
5.125000000000046,3.950753362380515,0.6257378601611505,1.0,-0.7863253858221071,4.96466309575992,0.0,0.08485193889912897,-0.5669046702496563,0.0,0.681092636886177,0.11535762136368706,0.06845401026517534,0.717854049522138,0.11983653703766196,0.04776123176701155
5.1260000000000465,3.949963917812233,0.6307020278875222,1.0,-0.7925635429662498,4.963671050457467,0.0,0.08552673462151318,-0.5668141429073149,0.0,0.6807181841537578,0.11621814152016655,0.06894890260746246,0.7177401001138022,0.12076206169700585,0.04802613645204842
5.127000000000047,3.9491682357117703,0.6356651996492997,1.0,-0.7988004485443716,4.962671166840905,0.0,0.08620143398940759,-0.5667228897360672,0.0,0.6803430659767696,0.1170777351413057,0.06944287734629528,0.7176248742090904,0.1216870100628072,0.048289208285631095
5.128000000000047,3.948366317335616,0.640627367608961,1.0,-0.8050360927075518,4.961663446489183,0.0,0.0868760362276511,-0.5666309106304465,0.0,0.6799672851813912,0.11793640392445941,0.06993593312260506,0.717508373188942,0.12261138116638881,0.048550448319686634
5.1290000000000475,3.947558163950109,0.6455885239305655,1.0,-0.8112704656088572,4.96064789099363,0.0,0.08755054056083604,-0.5665382054842146,0.0,0.6795908445806998,0.11879414957193267,0.07042806859301831,0.7173905984329515,0.12353517404512307,0.04880985761720627
5.130000000000048,3.9467437768314335,0.6505486607797702,1.0,-0.8175035574033618,4.959624501957946,0.0,0.08822494621330697,-0.5664447741903643,0.0,0.6792137469746851,0.11965097379092383,0.07091928242980726,0.7172715513193543,0.12445838774241388,0.049067437252183356
5.131000000000048,3.9459231572656184,0.6555077703238421,1.0,-0.8237353582481631,4.958593280998204,0.0,0.08889925240915862,-0.5663506166411199,0.0,0.6788359951502619,0.12050687829346751,0.0714095733208396,0.7171512332250151,0.12538102130767836,0.049323188309551284
5.1320000000000485,3.9450963065485336,0.6604658447316701,1.0,-0.8299658583023968,4.95755422974284,0.0,0.08957345837223414,-0.5662557327279388,0.0,0.6784575918812844,0.12136186479637773,0.07189893996952795,0.7170296455254136,0.12630307379632785,0.04957711188512133
5.133000000000049,3.944263225985889,0.6654228761737817,1.0,-0.8361950477272573,4.956507349832659,0.0,0.0902475633261236,-0.566160122341514,0.0,0.6780785399285607,0.1222159350211918,0.07238738109478013,0.7169067895946335,0.12722454426975024,0.04982920908552121
5.134000000000049,3.9434239168932335,0.6703788568223404,1.0,-0.8424229166859954,4.955452642920828,0.0,0.09092156649416039,-0.5660637853717747,0.0,0.677698842039867,0.12306909069411104,0.0728748954309467,0.7167826668053481,0.12814543179528814,0.05007948102813236
5.1350000000000495,3.9425783805959504,0.6753337788511801,1.0,-0.8486494553439605,4.954390110672873,0.0,0.09159546709942203,-0.5659667217078879,0.0,0.6773185009499623,0.12392133354594843,0.0733614817277729,0.7166572785288091,0.12906573544622446,0.050327928841029934
5.13600000000005,3.9417266184292563,0.6802876344358022,1.0,-0.854874653868598,4.953319754766675,0.0,0.09226926436472649,-0.5658689312382603,0.0,0.6769375193806022,0.12477266531206976,0.07384713875034621,0.7165306261348329,0.12998545430176076,0.05057455366292048
5.13700000000005,3.9408686317382005,0.6852404157533928,1.0,-0.8610985024294697,4.952241576892476,0.0,0.09294295751263085,-0.5657704138505402,0.0,0.6765559000405554,0.12562308773233813,0.07433186527904598,0.7164027109917886,0.13090458744699887,0.050819356643081064
5.1380000000000505,3.940004421877661,0.6901921149828341,1.0,-0.8673209911982693,4.951155578752863,0.0,0.09361654576542941,-0.5656711694316184,0.0,0.6761736456256184,0.12647260255105838,0.07481566010949263,0.7162735344665866,0.13182313397292247,0.051062338941298385
5.139000000000051,3.9391339902123423,0.6951427243047206,1.0,-0.873542110348842,4.950061762062777,0.0,0.09429002834515224,-0.5655711978676304,0.0,0.6757907588186303,0.12732121151692177,0.0752985220524969,0.7161430979246646,0.1327410929763783,0.05130350172780809
5.140000000000051,3.9382573381167765,0.7000922359013574,1.0,-0.8797618500571827,4.948960128549504,0.0,0.0949634044735615,-0.565470499043958,0.0,0.6754072422894903,0.12816891638294822,0.0757804499340072,0.7160114027299772,0.13365846356005479,0.05154284618323339
5.1410000000000515,3.937374466975316,0.7050406419567937,1.0,-0.885980200501478,4.947850679952672,0.0,0.0956366733721525,-0.56536907284523,0.0,0.6750230986951707,0.1290157189064345,0.07626144259506101,0.7158784502449815,0.134575244832467,0.05178037349852591
5.142000000000052,3.9364853781821343,0.709987934656821,1.0,-0.8921971518621036,4.946733418024253,0.0,0.09630983426214973,-0.5652669191553255,0.0,0.6746383306797362,0.1298616208488972,0.07674149889173204,0.7157442418306287,0.13549143590793508,0.05201608487490479
5.143000000000052,3.935590073141225,0.7149341061889886,1.0,-0.8984126943216446,4.945608344528556,0.0,0.09698288636450575,-0.5651640378573741,0.0,0.6742529408743573,0.13070662397601746,0.07722061769507928,0.7156087788463478,0.13640703590656533,0.05224998152379656
5.1440000000000525,3.934688553266396,0.7198791487426166,1.0,-0.9046268180649113,4.944475461242225,0.0,0.09765582889989916,-0.5650604288337587,0.0,0.673866931897329,0.13155073005758713,0.07769879789109561,0.7154720626500375,0.13732204395423162,0.05248206466677546
5.145000000000053,3.9337808199812705,0.7248230545088113,1.0,-0.9108395132789584,4.9433347699542365,0.0,0.0983286610887333,-0.5649560919661163,0.0,0.6734803063540861,0.1323939408674544,0.07817603838065716,0.7153340945980521,0.13823645918255673,0.05271233553550417
5.146000000000053,3.932866874719284,0.7297658156804638,1.0,-0.9170507701530833,4.942186272465901,0.0,0.09900138215113258,-0.5648510271353403,0.0,0.6730930668372211,0.13323625818346702,0.07865233807946972,0.715194876045191,0.13915028072889044,0.05294079537167311
5.1470000000000535,3.93194671892368,0.7347074244522829,1.0,-0.9232605788788679,4.94102997059085,0.0,0.09967399130694324,-0.5647452342215821,0.0,0.6727052159265013,0.1340776837874216,0.07912769591802003,0.7150544083446876,0.14006350773629425,0.053167445426942815
5.148000000000054,3.9310203540475106,0.7396478730207939,1.0,-0.9294689296501769,4.939865866155043,0.0,0.10034648777572998,-0.5646387131042526,0.0,0.6723167561888843,0.13491821946500768,0.07960211084152244,0.7149126928481951,0.14097613935351982,0.053392286962883825
5.149000000000054,3.930087781553632,0.7445871535843542,1.0,-0.9356758126631769,4.938693960996759,0.0,0.10101887077677422,-0.5645314636620244,0.0,0.6719276901785377,0.1357578670057538,0.08007558180986768,0.7147697309057789,0.14188817473498985,0.05361532125091804
5.1500000000000545,3.929149002914704,0.7495252583431655,1.0,-0.9418812181163523,4.9375142569665975,0.0,0.10169113952907258,-0.5644234857728333,0.0,0.6715380204368555,0.1365966282029742,0.08054810779757102,0.714625523865902,0.14279961304077893,0.05383654957225994
5.151000000000055,3.9282040196131844,0.75446217949929,1.0,-0.9480851362105253,4.93632675592747,0.0,0.1023632932513353,-0.5643147793138799,0.0,0.6711477494924766,0.13743450485371608,0.0810196877937213,0.7144800730754158,0.1437104534365952,0.054055973217858565
5.152000000000055,3.9272528331413334,0.7593979092566481,1.0,-0.9542875571488536,4.935131459754606,0.0,0.10303533116198262,-0.5642053441616316,0.0,0.6707568798613035,0.1382714987587038,0.0814903208019274,0.7143333798795489,0.14462069509375797,0.05427359348833824
5.1530000000000555,3.9262954450012035,0.7643324398210525,1.0,-0.9604884711368724,4.93392837033554,0.0,0.10370725247914576,-0.5640951801918249,0.0,0.670365414046518,0.1391076117222888,0.08196000584026836,0.7141854456218943,0.14553033718918218,0.054489411693941496
5.154000000000056,3.9253318567046405,0.7692657634002058,1.0,-0.9666878683824922,4.932717489570113,0.0,0.1043790564206633,-0.5639842872794663,0.0,0.6699733545386027,0.13994284555239545,0.08242874194124061,0.7140362716444004,0.14643937890535677,0.05470342915447074
5.155000000000056,3.924362069773282,0.7741978722037167,1.0,-0.9728857390960184,4.931498819370471,0.0,0.10505074220407953,-0.5638726652988346,0.0,0.6695807038153575,0.14077720206046776,0.08289652815170595,0.7138858592873588,0.14734781943032543,0.05491564719923049
5.1560000000000565,3.9233860857385543,0.7791287584431121,1.0,-0.9790820734901671,4.930272361661062,0.0,0.10572230904664308,-0.5637603141234828,0.0,0.6691874643419193,0.14161068306141725,0.08336336353283974,0.713734209889394,0.14825565795766726,0.05512606716696997
5.157000000000057,3.9224039061416693,0.7840584143318499,1.0,-0.9852768617800807,4.929038118378631,0.0,0.10639375616530469,-0.5636472336262403,0.0,0.668793638570781,0.1424432903735707,0.08382924716007881,0.7135813247874527,0.14916289368647728,0.05533469040582571
5.158000000000057,3.9214155325336217,0.7889868320853336,1.0,-0.9914700941833471,4.927796091472213,0.0,0.10706508277671609,-0.5635334236792134,0.0,0.6683992289418095,0.14327502581861815,0.08429417812306983,0.7134272053167928,0.15006952582134742,0.055541518273264735
5.1590000000000575,3.9204209664751906,0.7939140039209123,1.0,-0.9976617609199985,4.926546282903142,0.0,0.10773628809722618,-0.5634188841537897,0.0,0.6680042378822685,0.14410589122155906,0.08475815552561596,0.7132718528109747,0.15097555357234466,0.055746552136026965
5.160000000000058,3.9194202095369297,0.7988399220579122,1.0,-1.003851852212552,4.925288694645034,0.0,0.10840737134288214,-0.5633036149206369,0.0,0.6676086678068329,0.1449358884106533,0.0852211784856264,0.7131152686018474,0.1518809761549947,0.05594979337006935
5.161000000000058,3.918413263299171,0.8037645787176366,1.0,-1.010040358286009,4.924023328683793,0.0,0.1090783317294257,-0.5631876158497074,0.0,0.6672125211176122,0.14576501921736754,0.08568324613506319,0.7129574540195404,0.15278579279026028,0.05615124336050886
5.1620000000000585,3.917400129352021,0.8086879661233802,1.0,-1.016227269367873,4.922750187017606,0.0,0.10974916847229174,-0.5630708868102385,0.0,0.6668158002041695,0.14659328547632428,0.08614435761988941,0.7127984103924538,0.15369000270452188,0.056350903501566414
5.163000000000059,3.9163808092953554,0.8136100765004424,1.0,-1.0224125756881677,4.921469271656934,0.0,0.11041988078660661,-0.5629534276707556,0.0,0.6664185074435404,0.14742068902525038,0.08660451210001657,0.7126381390472463,0.15459360512955805,0.05654877519651052
5.164000000000059,3.91535530473882,0.8185309020761423,1.0,-1.028596267479454,4.920180584624521,0.0,0.11109046788718657,-0.5628352382990731,0.0,0.6660206452002545,0.14824723170492657,0.0870637087492531,0.7124766413088264,0.15549659930252638,0.05674485985760174
5.1650000000000595,3.914323617301827,0.823450435079818,1.0,-1.03477833497683,4.918884127955378,0.0,0.11176092898853442,-0.5627163185622971,0.0,0.6656222158263562,0.14907291535913436,0.08752194675525046,0.7123139185003425,0.15639898446594122,0.05693915890603636
5.16600000000006,3.9132857486135513,0.8283686677428587,1.0,-1.0409587684179715,4.917579903696787,0.0,0.11243126330484025,-0.5625966683268268,0.0,0.6652232216614227,0.14989774183460808,0.08797922531945278,0.7121499719431712,0.15730075986765743,0.057131673771891586
5.16700000000006,3.9122417003129293,0.8332855922987037,1.0,-1.0471375580431308,4.916267913908296,0.0,0.11310147004997784,-0.5624762874583572,0.0,0.664823665032588,0.15072171298098289,0.08843554365704373,0.7119848029569101,0.15820192476084863,0.05732240589407016
5.1680000000000605,3.9111914740486555,0.8382012009828579,1.0,-1.0533146940951552,4.914948160661716,0.0,0.11377154843750345,-0.5623551758218805,0.0,0.6644235482545607,0.15154483065074384,0.08889090099689362,0.7118184128593651,0.15910247840398714,0.05751135672024474
5.169000000000061,3.9101350714791807,0.8431154860329044,1.0,-1.0594901668195043,4.913620646041118,0.0,0.11444149768065379,-0.5622333332816886,0.0,0.6640228736296472,0.1523670966991766,0.08934529658150783,0.7116508029665429,0.16000242006082505,0.057698527706803684
5.170000000000061,3.9090724942727086,0.8480284396885198,1.0,-1.0656639664642675,4.912285372142828,0.0,0.11511131699234498,-0.5621107597013747,0.0,0.6636216434477713,0.15318851298431718,0.08979872966697429,0.7114819745926401,0.1609017490003742,0.057883920318796044
5.1710000000000615,3.908003744107194,0.8529400541914726,1.0,-1.071836083280164,4.910942341075427,0.0,0.11578100558516857,-0.5619874549438361,0.0,0.6632198599864975,0.1540090813669,0.09025119952290958,0.7113119290500343,0.1618004644968841,0.05806753602987661
5.172000000000062,3.9069288226703396,0.8578503217856566,1.0,-1.0780065075205836,4.909591554959744,0.0,0.11645056267139292,-0.561863418871275,0.0,0.6628175255110504,0.15482880371031177,0.09070270543240919,0.7111406676492746,0.16269856582982592,0.0582493763222529
5.173000000000062,3.9058477316595925,0.862759234717089,1.0,-1.0841752294415836,4.908233015928853,0.0,0.1171199874629592,-0.561738651345202,0.0,0.6624146422743368,0.1556476818805392,0.09115324669199285,0.7109681916990711,0.1635960522838695,0.05842944268662987
5.1740000000000625,3.9047604727821428,0.8676667852339264,1.0,-1.0903422393019104,4.906866726128075,0.0,0.11778927917148026,-0.5616131522264373,0.0,0.6620112125169687,0.15646571774612048,0.09160282261155304,0.7107945025062875,0.16449292314886446,0.05860773662215679
5.175000000000063,3.9036670477549213,0.8725729655864765,1.0,-1.0965075273630136,4.9054926877149665,0.0,0.11845843700823887,-0.5614869213751132,0.0,0.661607238467284,0.1572829131780958,0.09205143251430221,0.71061960137593,0.16538917771981992,0.05878425963637328
5.176000000000063,3.9025674583045937,0.8774777680272142,1.0,-1.1026710838890659,4.904110902859321,0.0,0.11912746018418631,-0.5613599586506759,0.0,0.6612027223413681,0.15809927004995927,0.09249907573672066,0.7104434896111393,0.16628481529688535,0.058959013245156115
5.1770000000000636,3.9014617061675647,0.8823811848107804,1.0,-1.108832899146962,4.9027213737431685,0.0,0.1197963479099387,-0.5612322639118883,0.0,0.6607976663430792,0.1589147902376073,0.09294575162850267,0.7102661685131816,0.16717983518532764,0.05913199897266541
5.178000000000064,3.9003497930899655,0.8872832081940139,1.0,-1.1149929634063587,4.901324102560762,0.0,0.12046509939577826,-0.5611038370168314,0.0,0.6603920726640662,0.1597294756192933,0.09339145955250604,0.7100876393814379,0.16807423669551494,0.059303218351292444
5.179000000000064,3.89923172082766,0.8921838304359506,1.0,-1.1211512669396737,4.899919091518585,0.0,0.12113371385164934,-0.5609746778229068,0.0,0.6599859434837948,0.16054332807557745,0.0938361988846982,0.7099079035133979,0.16896801914289422,0.05947267292160635
5.1800000000000646,3.898107491146236,0.8970830437978393,1.0,-1.127307800022105,4.898506342835342,0.0,0.1218021904871574,-0.560844786186839,0.0,0.6595792809695681,0.16135634948927813,0.09427996901410413,0.7097269622046485,0.16986118184797153,0.05964036423230159
5.181000000000065,3.8969771058210063,0.9019808405431533,1.0,-1.1334625529316469,4.897085858741955,0.0,0.12247052851156706,-0.5607141619646775,0.0,0.6591720872765501,0.16216854174542403,0.09472276934275337,0.7095448167488663,0.17075372413629172,0.059806293840145464
5.182000000000065,3.8958405666370033,0.9068772129376029,1.0,-1.139615515949104,4.895657641481563,0.0,0.12313872713380042,-0.560582805011799,0.0,0.6587643645477893,0.1629799067312064,0.09516459928562829,0.7093614684378093,0.1716456453384188,0.059970463309926274
5.1830000000000656,3.8946978753889763,0.9117721532491514,1.0,-1.1457666793581125,4.894221693309514,0.0,0.12380678556243577,-0.5604507151829098,0.0,0.65835611491424,0.16379044633593126,0.09560545827061087,0.7091769185613068,0.17253694478991566,0.060132874214400944
5.184000000000066,3.893549033881393,0.9166656537480128,1.0,-1.1519160334451368,4.892778016493368,0.0,0.12447470300570389,-0.5603178923320478,0.0,0.6579473404947882,0.1646001624509696,0.09604534573842964,0.708991168407253,0.17342762183132182,0.06029352813424318
5.185000000000066,3.8923940439284297,0.9215577067066854,1.0,-1.158063568499512,4.891326613312889,0.0,0.1251424786714892,-0.5601843363125847,0.0,0.6575380433962723,0.16540905696971345,0.09648426114260883,0.7088042192615968,0.17431767580813684,0.060452426657992574
5.186000000000067,3.8912329073539738,0.9264483043999497,1.0,-1.164209274813441,4.889867486060038,0.0,0.1258101117673261,-0.5600500469772288,0.0,0.6571282257135073,0.16621713178752592,0.09692220394941434,0.7086160724083334,0.1752071060707974,0.06060957138200263
5.187000000000067,3.8900656259916175,0.9313374391048848,1.0,-1.1703531426820148,4.888400637038978,0.0,0.1264776015003976,-0.5599150241780266,0.0,0.6567178895293098,0.16702438880169496,0.09735917363780175,0.7084267291294976,0.17609591197465788,0.06076496391038992
5.188000000000067,3.888892201684658,0.9362251031008791,1.0,-1.1764951624032274,4.886926068566063,0.0,0.12714494707753374,-0.5597792677663658,0.0,0.6563070369145196,0.16783082991138581,0.09779516969936373,0.7082361907051541,0.1769840928799697,0.06091860585498302
5.189000000000068,3.887712636286092,0.9411112886696479,1.0,-1.1826353242779954,4.885443782969838,0.0,0.12781214770521007,-0.559642777592977,0.0,0.6558956699280253,0.16863645701759516,0.09823019163827779,0.7080444584133897,0.1778716481518619,0.061070498835272026
5.190000000000068,3.886526931658615,0.9459959880952301,1.0,-1.188773618610157,4.883953782591034,0.0,0.12847920258954434,-0.5595055535079365,0.0,0.6554837906167876,0.169441272023102,0.09866423897125232,0.707851533530306,0.1787585771603182,0.06122064447835742
5.191000000000068,3.885335089674616,0.9508791936640221,1.0,-1.1949100357065112,4.882456069782566,0.0,0.1291461109362973,-0.5593675953606684,0.0,0.6550714010158633,0.17024527683242444,0.09909731122747634,0.7076574173300103,0.17964487928016035,0.06136904441890074
5.192000000000069,3.8841371122161767,0.9557608976647757,1.0,-1.201044565876818,4.880950646909526,0.0,0.1298128719508692,-0.559228902999947,0.0,0.6546585031484294,0.1710484733517711,0.09952940794856534,0.7074621110846083,0.18053055389102513,0.0615157002990738
5.193000000000069,3.8829330011750667,0.9606410923886141,1.0,-1.2071771994338174,4.879437516349183,0.0,0.13047948483829866,-0.559089476273899,0.0,0.6542450990258084,0.17185086348899567,0.09996052868850942,0.7072656160641964,0.1814156003773449,0.06166061376850914
5.194000000000069,3.8817227584527414,0.9655197701290434,1.0,-1.2133079266932434,4.8779166804909755,0.0,0.13114594880326058,-0.5589493150300069,0.0,0.6538311906474914,0.1726524491535505,0.10039067301362053,0.7070679335368533,0.1823000181283266,0.06180378648425015
5.19500000000007,3.8805063859603384,0.9703969231819694,1.0,-1.2194367379738456,4.876388141736511,0.0,0.13181226305006521,-0.5588084191151095,0.0,0.653416780001163,0.17345323225644163,0.10081984050248055,0.7068690647686326,0.18318380653793254,0.06194522011070201
5.19600000000007,3.879283885618678,0.9752725438456945,1.0,-1.2255636235973852,4.874851902499563,0.0,0.13247842678265456,-0.5586667883754063,0.0,0.6530018690627281,0.17425321471018046,0.10124803074588723,0.7066690110235566,0.18406696500485686,0.062084916319581726
5.19700000000007,3.878055259358254,0.9801466244209517,1.0,-1.2316885738886785,4.87330796520606,0.0,0.13314443920460306,-0.558524422656459,0.0,0.6525864597963342,0.17505239842874218,0.10167524334680396,0.7064677735636065,0.18494949293250934,0.062222876789869985
5.198000000000071,3.8768205091192347,0.9850191572109025,1.0,-1.2378115791755924,4.871756332294091,0.0,0.1338102995191145,-0.5583813218031937,0.0,0.6521705541543963,0.17585078532751733,0.10210147792030594,0.7062653536487155,0.1858313897289917,0.062359103207761925
5.199000000000071,3.87557963685146,0.9898901345211525,1.0,-1.2439326297890658,4.870197006213898,0.0,0.1344760069290205,-0.5582374856599038,0.0,0.6517541540776238,0.1766483773232677,0.10252673409352803,0.7060617525367627,0.18671265480707833,0.06249359726661849
5.200000000000071,3.874332644514436,0.9947595486597637,1.0,-1.2500517160631248,4.868629989427867,0.0,0.13514156063677885,-0.5580929140702529,0.0,0.6513372614950446,0.1774451763340811,0.10295101150561248,0.7058569714835649,0.18759328758419536,0.0626263606669182
5.201000000000072,3.873079534077333,0.9996273919372699,1.0,-1.2561688283349008,4.867055284410531,0.0,0.13580695984447216,-0.557947606877276,0.0,0.6509198783240305,0.17824118427932717,0.1033743098076568,0.7056510117428693,0.18847328748240097,0.06275739511620912
5.202000000000072,3.8718203075189854,1.0044936566666753,1.0,-1.26228395694463,4.865472893648567,0.0,0.13647220375380456,-0.5578015639233838,0.0,0.6505020064703227,0.17903640307960994,0.10379662866266011,0.7054438745663465,0.18935265392836195,0.06288670232906028
5.203000000000072,3.870554966827883,1.0093583351634872,1.0,-1.2683970922356942,4.863882819640785,0.0,0.13713729156610238,-0.5576547850503634,0.0,0.6500836478280572,0.17983083465672722,0.10421796774547269,0.7052355612035837,0.19023138635333725,0.0630142840270149
5.204000000000073,3.869283514002171,1.014221419745714,1.0,-1.274508224554618,4.862285064898128,0.0,0.13780222248231103,-0.5575072700993822,0.0,0.6496648042797899,0.18062448093362324,0.10463832674274245,0.7050260729020766,0.19110948419315438,0.06314014193854207
5.205000000000073,3.868005951049647,1.0190829027338815,1.0,-1.2806173442510895,4.860679631943669,0.0,0.1384669957029934,-0.5573590189109897,0.0,0.6492454776965235,0.18141734383434563,0.10505770535286299,0.7048154109072244,0.19198694688818985,0.06326427779898994
5.206000000000073,3.866722279987758,1.0239427764510445,1.0,-1.2867244416779748,4.859066523312606,0.0,0.13913161042832836,-0.5572100313251209,0.0,0.6488256699377324,0.18220942528400094,0.10547610328592139,0.7046035764623214,0.19286377388334827,0.0633866933505384
5.207000000000074,3.8654325028435945,1.0288010332228024,1.0,-1.2928295071913378,4.857445741552257,0.0,0.13979606585810947,-0.5570603071810978,0.0,0.6484053828513882,0.18300072720871108,0.10589352026364601,0.7043905708085498,0.1937399646280423,0.06350739034215232
5.208000000000074,3.864136621653892,1.0336576653772978,1.0,-1.298932531150438,4.85581728922206,0.0,0.14046036119174146,-0.5569098463176326,0.0,0.6479846182739878,0.18379125153556777,0.10630995601935338,0.7041763951849754,0.19461551857616954,0.06362637052953451
5.209000000000074,3.8628346384650234,1.038512665245249,1.0,-1.305033503917772,4.854181168893561,0.0,0.14112449562824134,-0.5567586485728307,0.0,0.6475633780305773,0.18458100019259194,0.10672541029789759,0.7039610508285384,0.19549043518609546,0.0637436356750799
5.210000000000075,3.861526555332998,1.0433660251599486,1.0,-1.3111324158590711,4.852537383150418,0.0,0.14178846836623465,-0.5566067137841927,0.0,0.6471416639347786,0.18536997510868783,0.10713988285561718,0.7037445389740482,0.1963647139206302,0.06385918754782896
5.211000000000075,3.8602123743234573,1.048217737457279,1.0,-1.3172292573433209,4.850885934588394,0.0,0.1424522786039547,-0.5564540417886173,0.0,0.6467194777888168,0.18615817821360078,0.10755337346028326,0.7035268608541765,0.19723835424700872,0.06397302792342174
5.212000000000075,3.8588920975116725,1.0530677944757239,1.0,-1.3233240187427762,4.849226825815351,0.0,0.1431159255392403,-0.5563006324224039,0.0,0.6462968213835453,0.18694561143787336,0.10796588189104714,0.7033080176994504,0.1981113556368693,0.06408515858405191
5.213000000000076,3.857565726982541,1.0579161885563813,1.0,-1.3294166904329767,4.847560059451248,0.0,0.14377940836953462,-0.5561464855212553,0.0,0.6458736964984736,0.18773227671280293,0.10837740793838863,0.7030880107382474,0.1989837175662337,0.06419558131842146
5.214000000000076,3.856233264830582,1.0627629120429787,1.0,-1.3355072627927669,4.845885638128136,0.0,0.14444272629188365,-0.555991600920281,0.0,0.6454501049017926,0.18851817597039916,0.10878795140406443,0.7028668411967882,0.19985543951548643,0.06430429792169534
5.215000000000076,3.8548947131599367,1.0676079572818713,1.0,-1.341595726204293,4.844203564490156,0.0,0.14510587850293277,-0.5558359784539986,0.0,0.6450260483504027,0.18930331114333893,0.10919751210105419,0.7026445102991302,0.20072652096935145,0.06441131019545565
5.216000000000077,3.8535500740843602,1.0724513166220748,1.0,-1.3476820710530446,4.842513841193532,0.0,0.14576886419892793,-0.5556796179563379,0.0,0.6446015285899392,0.19008768416492722,0.10960608985351136,0.7024210192671624,0.20159696141687533,0.06451661994765773
5.217000000000077,3.852199349727221,1.0772929824152635,1.0,-1.353766287727852,4.840816470906566,0.0,0.14643168257571193,-0.5555225192606428,0.0,0.6441765473547999,0.19087129696905256,0.11001368449670954,0.7021963693205981,0.2024667603514038,0.06462022899258477
5.218000000000077,3.850842542221498,1.0821329470157866,1.0,-1.3598483666209071,4.839111456309641,0.0,0.14709433282872356,-0.5553646821996745,0.0,0.6437511063681715,0.19165415149014506,0.11042029587699073,0.7019705616769698,0.20333591727056124,0.06472213915080334
5.219000000000078,3.8494796537097744,1.086971202780679,1.0,-1.365928298127777,4.837398800095203,0.0,0.14775681415299557,-0.5552061066056141,0.0,0.6433252073420578,0.19243624966313483,0.11082592385171414,0.7017435975516234,0.20420443167623054,0.0648223522491194
5.220000000000078,3.8481106863442367,1.0918077420696781,1.0,-1.3720060726474241,4.835678504967772,0.0,0.14841912574315383,-0.5550467923100652,0.0,0.6428988519773049,0.19321759342340997,0.11123056828920412,0.701515478157711,0.2050723030745321,0.06492087012053409
5.221000000000078,3.846735642286673,1.0966425572452212,1.0,-1.3780816805822045,4.83395057364393,0.0,0.1490812667934134,-0.5548867391440574,0.0,0.6424720419636314,0.19399818470677285,0.11163422906869735,0.7012862047061873,0.20593953097580064,0.0650176946041994
5.222000000000079,3.8453545237084645,1.1014756406724786,1.0,-1.384155112337908,4.832215008852316,0.0,0.14974323649758028,-0.5547259469380481,0.0,0.6420447789796525,0.19477802544940193,0.11203690608029321,0.7010557784058024,0.20680611489456843,0.06511282754537541
5.223000000000079,3.8439673327905863,1.106306984719352,1.0,-1.3902263583237569,4.830471813333623,0.0,0.15040503404904718,-0.5545644155219265,0.0,0.6416170646929087,0.1955571175878077,0.11243859922490054,0.7008242004630957,0.20767205434954134,0.06520627079538624
5.224000000000079,3.842574071723602,1.1111365817564898,1.0,-1.396295408952425,4.828720989840595,0.0,0.1510666586407929,-0.5544021447250155,0.0,0.641188900759894,0.1963354630587922,0.11283930841418671,0.7005914720823921,0.2085373488635789,0.06529802621157708
