T,input_acc,W1,W2,W3,Px,Py,Pz,Vx,Vy,Vz,Roll,Pitch,Yaw,R_rate,P_rate,Y_rate,Wb1,Wb2,Wb3
0,0.0,0.0,0.0,0.0,0.0,0.0,0.0,0.0,0.0,0.0,0.0,0.0,0.0,0.0,0.0,0.0,0.0,0.0,0.0
0.01,9.8,-0.0,0.0,0.0,0.0,0.0,0.0,0.0,0.0,0.0,0.0,0.0,0.0,0.0,0.0,0.0,-0.0,0.0,0.0
0.02,9.796067603445321,-2.427002160992897e-05,-5.737789364956837e-06,-1.860842893082193e-05,0.0,0.0,1.1312968325986068e-13,0.0,0.0,5.653381381991463e-11,0.0,0.0,0.0,0.0,0.0,0.0,-0.0,0.0,0.0
0.03,9.792217147482123,-6.781762252805079e-05,-1.4868898065048699e-05,-2.687821981197548e-05,0.0,0.0,3.6102283944665918e-12,0.0,0.0,9.015656945673603e-10,0.0,0.0,0.0,6.82683246766108e-14,1.6139634055069317e-14,4.00989571892724e-22,6.82683246766108e-14,1.6139634055069317e-14,4.00989571892724e-22
0.04,9.788429746141148,-0.00012642276812289177,-2.7164663173629408e-05,-3.8243369326669365e-05,0.0,0.0,2.7339943542160597e-11,0.0,0.0,4.549140065862026e-09,0.0,0.0,0.0,5.796246806806635e-13,1.2970451047004145e-13,1.2227454474707154e-20,5.796246806806635e-13,1.2970451047004145e-13,1.2227454474707154e-20
0.05,9.78471344123192,-0.00019629161138235262,-4.1585349317819444e-05,-4.671630333568549e-05,0.0,0.0,1.1489376098896446e-10,0.0,0.0,1.4330090289801108e-08,0.0,0.0,0.0,2.431582372473444e-12,5.316018757958627e-13,1.1891470213124114e-19,2.431582372473444e-12,5.316018757958627e-13,1.1891470213124114e-19
0.060000000000000005,9.78106393396299,-0.0002741700587365045,-5.7609474522991074e-05,-5.517879971543404e-05,0.0,0.0,3.4966339230396846e-10,0.0,0.0,3.486995774254111e-08,0.0,0.0,0.0,7.172326331295873e-12,1.545072472362465e-12,6.560838718771179e-19,7.172326331295873e-12,1.545072472362465e-12,6.560838718771179e-19
0.07,9.777482551963896,-0.0003572431683619717,-7.461638945692466e-05,-6.244318936801763e-05,0.0,0.0,8.676779378327249e-10,0.0,0.0,7.206702790223779e-08,0.0,0.0,0.0,1.705892201553068e-11,3.63890047078944e-12,2.566416949220004e-18,1.705892201553068e-11,3.63890047078944e-12,2.566416949220004e-18
0.08,9.773968032780367,-0.00044312950470280435,-9.21579451256102e-05,-6.916884359930151e-05,0.0,0.0,1.870221995708433e-09,0.0,0.0,1.3307048344934425e-07,0.0,0.0,0.0,3.50606007210325e-11,7.425690595103932e-12,7.952298165189748e-18,3.50606007210325e-11,7.425690595103932e-12,7.952298165189748e-18
0.09,9.770520280045105,-0.0005298307184058409,-0.00010982377477621613,-7.516022185535056e-05,0.0,0.0,3.6362358869278954e-09,0.0,0.0,2.262586743792674e-07,0.0,0.0,0.0,6.48213516489837e-11,1.3655148445509161e-11,2.0816072496850593e-17,6.48213516489837e-11,1.3655148445509161e-11,2.0816072496850593e-17
0.09999999999999999,9.767138648455312,-0.0006157012848601207,-0.00012729205644529078,-8.060177872849108e-05,0.0,0.0,6.5344991666158295e-09,0.0,0.0,3.612175051273824e-07,0.0,0.0,0.0,1.1059315119890198e-10,2.3199382184303172e-11,4.794273555278297e-17,1.1059315119890198e-10,2.3199382184303172e-11,4.794273555278297e-17
0.10999999999999999,9.763822727541996,-0.0006994097358121772,-0.0001442957776653893,-8.549536908791164e-05,0.0,0.0,1.1035598591601116e-08,0.0,0.0,5.487189387064048e-07,0.0,0.0,0.0,1.7714993312019077e-10,3.7035805980058955e-11,9.986473054968906e-17,1.7714993312019077e-10,3.7035805980058955e-11,9.986473054968906e-17
0.11999999999999998,9.760571984806667,-0.0007799052352124065,-0.00016062783797258219,-8.991776215269377e-05,0.0,0.0,1.772368171442856e-08,0.0,0.0,8.006996178561229e-07,0.0,0.0,0.0,2.696903541250829e-10,5.6226995531607285e-11,1.9183494447620597e-16,2.696903541250829e-10,5.6226995531607285e-11,1.9183494447620597e-16
0.12999999999999998,9.75738592921062,-0.0008563837912000783,-0.00017612886542024456,-9.390405289397787e-05,0.0,0.0,2.730799727392976e-08,0.0,0.0,1.1302396032054849e-06,0.0,0.0,0.0,3.9373600590884957e-10,8.190019466509498e-11,3.4473960123212336e-16,3.9373600590884957e-10,8.190019466509498e-11,3.4473960123212336e-16
0.13999999999999999,9.754264037379718,-0.0009282571681832855,-0.00019068342268790817,-9.750151628519973e-05,0.0,0.0,4.063422355247665e-08,0.0,0.0,1.5515412284470468e-06,0.0,0.0,0.0,5.550302436728548e-10,1.1522670396570368e-10,5.85888374015141e-16,5.550302436728548e-10,1.1522670396570368e-10,5.85888374015141e-16
0.15,9.75120578792878,-0.0009951234365061206,-0.00020421297150864055,-0.00010074574111280472,0.0,0.0,5.8695585870041335e-08,0.0,0.0,2.0799080725237787e-06,0.0,0.0,0.0,7.59441577419918e-10,1.5740239231273355e-10,9.49635768922174e-16,7.59441577419918e-10,1.5740239231273355e-10,9.49635768922174e-16
0.16,9.74821064652144,-0.0010567398673534936,-0.00021667093706826367,-0.00010367208933941548,0.0,0.0,8.264376438518564e-08,0.0,0.0,2.731724048828227e-06,0.0,0.0,0.0,1.0128744844577373e-09,2.0962964676169086e-10,1.4778024668910177e-15,1.0128744844577373e-09,2.0962964676169086e-10,1.4778024668910177e-15
0.17,9.745278073342034,-0.0011129979803599483,-0.00022803746663012652,-0.00010631102059229964,0.0,0.0,1.1379959337310436e-07,0.0,0.0,3.5244326114140372e-06,0.0,0.0,0.0,1.3211895722893065e-09,2.731012799012357e-10,2.2198833842514557e-15,1.3211895722893065e-09,2.731012799012357e-10,2.2198833842514557e-15
0.18000000000000002,9.742407520353424,-0.0011639008823437216,-0.00023831498683601668,-0.00010869070411415002,0.0,0.0,1.5366355315084514e-07,0.0,0.0,4.4765160782198325e-06,0.0,0.0,0.0,1.690134250030972e-09,3.489865482324884e-10,3.2330437323429436e-15,1.690134250030972e-09,3.489865482324884e-10,3.2330437323429436e-15
0.19000000000000003,9.739598433184543,-0.0012095428195989075,-0.000247524054095977,-0.00011083627023798904,0.0,0.0,2.039260558198294e-07,0.0,0.0,5.607475071305451e-06,0.0,0.0,0.0,2.125284426315222e-09,4.3841941969821874e-10,4.5819177940456445e-15,2.125284426315222e-09,4.3841941969821874e-10,4.5819177940456445e-15
0.20000000000000004,9.736850250897662,-0.0012500909112867368,-0.00025569971391453526,-0.00011277054652023478,0.0,0.0,2.664775259957968e-07,0.0,0.0,6.937808074100546e-06,0.0,0.0,0.0,2.631997245585943e-09,5.424890680437747e-10,6.338234610803831e-15,2.631997245585943e-09,5.424890680437747e-10,6.338234610803831e-15
0.21000000000000005,9.734162406703447,-0.0012857689686835915,-0.0002628882486078511,-0.00011451408106925176,0.0,0.0,3.4341827769629855e-07,0.0,0.0,8.488991105665536e-06,0.0,0.0,0.0,3.2153744780349716e-09,6.622325234556555e-10,8.58030155075322e-15,3.2153744780349716e-09,6.622325234556555e-10,8.58030155075322e-15
0.22000000000000006,9.731534328229941,-0.001316843300927445,-0.0002691443391527129,-0.00011608545482603982,0.0,0.0,4.3706818855586026e-07,0.0,0.0,1.0283457511964926e-05,0.0,0.0,0.0,3.880235885411177e-09,7.986293346593561e-10,1.1392380083816754e-14,3.880235885411177e-09,7.986293346593561e-10,1.1392380083816754e-14
0.23000000000000007,9.728965437978493,-0.0013436103855389086,-0.00027452859563105464,-0.00011750143138195201,0.0,0.0,5.499761725389419e-07,0.0,0.0,1.2344577874152956e-05,0.0,0.0,0.0,4.631101677284328e-09,9.525980646054906e-10,1.4863988907597845e-14,4.631101677284328e-09,9.525980646054906e-10,1.4863988907597845e-14
0.24000000000000007,9.726455153679433,-0.001366386275207813,-0.0002791054397135219,-0.00011877715220561075,0.0,0.0,6.849294523208143e-07,0.0,0.0,1.4696640033871664e-05,0.0,0.0,0.0,5.4721830400078614e-09,1.12499441163377e-09,1.9089168039255608e-14,5.4721830400078614e-09,1.12499441163377e-09,1.9089168039255608e-14
0.25000000000000006,9.724002888677868,-0.0013854976047234498,-0.0002829413073602031,-0.00011992628573219884,0.0,0.0,8.449626325064794e-07,0.0,0.0,1.7364829235561238e-05,0.0,0.0,0.0,6.4073796496604094e-09,1.31661073627356e-09,2.416573433279363e-14,6.4073796496604094e-09,1.31661073627356e-09,2.416573433279363e-14
0.26000000000000006,9.721608052290733,-0.001401274059977036,-0.00028610314578856905,-0.00012096117429567545,0.0,0.0,1.0333665748577536e-06,0.0,0.0,2.0375208385782775e-05,0.0,0.0,0.0,7.440283060232322e-09,1.528176769173539e-09,3.019455454241479e-14,7.440283060232322e-09,1.528176769173539e-09,3.019455454241479e-14
0.2700000000000001,9.719270050161928,-0.0014140421708597496,-0.0002886571759316819,-0.00012189296120756343,0.0,0.0,1.2536970766986458e-06,0.0,0.0,2.375469842955343e-05,0.0,0.0,0.0,8.574184878387032e-09,1.7603612805551075e-09,3.727885708231139e-14,8.574184878387032e-09,1.7603612805551075e-09,3.727885708231139e-14
0.2800000000000001,9.71698828460367,-0.0014241202925608565,-0.0002906678934534112,-0.00012273170801805266,0.0,0.0,1.5097833536691404e-06,0.0,0.0,2.7531058843693767e-05,0.0,0.0,0.0,9.812088687272649e-09,2.013774501906317e-09,4.5523598428848555e-14,9.812088687272649e-09,2.013774501906317e-09,4.5523598428848555e-14
0.2900000000000001,9.714762154929705,-0.0014318146441039603,-0.00029219728169906507,-0.00012348649923926157,0.0,0.0,1.8057363279975214e-06,0.0,0.0,3.17328682471877e-05,0.0,0.0,0.0,1.1156724755766366e-08,2.288971105866202e-09,5.503489503328506e-14,1.1156724755766366e-08,2.288971105866202e-09,5.503489503328506e-14
0.3000000000000001,9.71259105777806,-0.0014374162788312135,-0.00029330421142283457,-0.0001241655374091377,0.0,0.0,2.145956723461361e-06,0.0,0.0,3.6389505128554605e-05,0.0,0.0,0.0,1.2610566659201828e-08,2.586453568415118e-09,6.591952691222251e-14,1.2610566659201828e-08,2.586453568415118e-09,6.591952691222251e-14
0.3100000000000001,9.710474387424739,-0.0014411988684548559,-0.0002940440034209687,-0.00012477622868190425,0.0,0.0,2.5351429682072792e-06,0.0,0.0,4.153112869023383e-05,0.0,0.0,0.0,1.4175849036992785e-08,2.906675757651622e-09,7.828451494102151e-14,1.4175849036992785e-08,2.906675757651622e-09,7.828451494102151e-14
0.3200000000000001,9.70841153608799,-0.0014434171899882816,-0.00029446813181600173,-0.00012532526020467123,0.0,0.0,2.9782989065996235e-06,0.0,0.0,4.7188659809981706e-05,0.0,0.0,0.0,1.5854585816619384e-08,3.2500466144600255e-09,9.223677039496625e-14,1.5854585816619384e-08,3.2500466144600255e-09,9.223677039496625e-14
0.3300000000000001,9.706401894223594,-0.0014443062130457523,-0.0002946240473704214,-0.0001258186699246954,0.0,0.0,3.4807413212681713e-06,0.0,0.0,5.3393762119280636e-05,0.0,0.0,0.0,1.7648588338071088e-08,3.6169338114999287e-09,1.0788281250903768e-13,1.7648588338071088e-08,3.6169338114999287e-09,1.0788281250903768e-13
0.34000000000000014,9.704444850811278,-0.0014440806934428933,-0.0002945551019284102,-0.00012626190963184586,0.0,0.0,4.04810726652499e-06,0.0,0.0,6.0178823198760845e-05,0.0,0.0,0.0,1.955948291478979e-08,4.0076672974973634e-09,1.253285477542131e-13,1.955948291478979e-08,4.0076672974973634e-09,1.253285477542131e-13
0.35000000000000014,9.702539793632488,-0.0014429351875416187,-0.00029430055680010407,-0.00012665990186273902,0.0,0.0,4.686361214320578e-06,0.0,0.0,6.757693589063431e-05,0.0,0.0,0.0,2.1588727463917832e-08,4.422542653302591e-09,1.4467910311528546e-13,2.1588727463917832e-08,4.422542653302591e-09,1.4467910311528546e-13
0.36000000000000015,9.700686109539678,-0.0014410444102057696,-0.00029389565960654166,-0.00012701709127732068,0.0,0.0,5.401802013909394e-06,0.0,0.0,7.562187972814099e-05,0.0,0.0,0.0,2.3737626928393943e-08,4.861824204229974e-09,1.6603870483578934e-13,2.3737626928393943e-08,4.861824204229974e-09,1.6603870483578934e-13
0.37000000000000016,9.69888318471729,-0.0014385638674398213,-0.00029337177575832304,-0.0001273374910390554,0.0,0.0,6.2010696663949305e-06,0.0,0.0,8.434810248200767e-05,0.0,0.0,0.0,2.6007347294892136e-08,5.3257478495645025e-09,1.8951059378826143e-13,2.6007347294892136e-08,5.3257478495645025e-09,1.8951059378826143e-13
0.38000000000000017,9.697130404934656,-0.0014356307026704076,-0.00029275656233204933,-0.00012762472468754764,0.0,0.0,7.091151915324419e-06,0.0,0.0,9.379070182391892e-05,0.0,0.0,0.0,2.8398928083999525e-08,5.814523584655725e-09,2.1519696874413027e-13,2.8398928083999525e-08,5.814523584655725e-09,2.1519696874413027e-13
0.3900000000000002,9.695427155790888,-0.0014323647031231732,-0.00029207417361796264,-0.00012788206394103178,0.0,0.0,8.07939065450332e-06,0.0,0.0,0.00010398540710700046,0.0,0.0,0.0,3.0913293252022416e-08,6.3283377036558486e-09,2.4319894926780896e-13,3.0913293252022416e-08,6.3283377036558486e-09,2.4319894926780896e-13
0.4000000000000002,9.693772822952027,-0.0014288694197887065,-0.000291345489030204,-0.00012811246282502448,0.0,0.0,9.173488154199704e-06,0.0,0.0,0.00011496856126331499,0.0,0.0,0.0,3.355126049737992e-08,6.8673546816936585e-09,2.736165506589271e-13,3.355126049737992e-08,6.8673546816936585e-09,2.736165506589271e-13
0.4100000000000002,9.692166792380522,-0.0014252333610227524,-0.0002905883553889228,-0.00012831858848463644,0.0,0.0,1.0381513106908642e-05,0.0,0.0,0.00012677710281837034,0.0,0.0,0.0,3.6313549008941394e-08,7.431718744163373e-09,3.065486642373479e-13,3.6313549008941394e-08,7.431718744163373e-09,3.065486642373479e-13
0.4200000000000002,9.690608450557237,-0.0014215312258653145,-0.00028981783679816716,-0.0001285028490032603,0.0,0.0,1.1711906493846763e-05,0.0,0.0,0.00013944854802263974,0.0,0.0,0.0,3.920078572934892e-08,8.021555137941748e-09,3.4209303723929886e-13,3.920078572934892e-08,8.021555137941748e-09,3.4209303723929886e-13
0.4300000000000002,9.689097184696108,-0.001417825148680097,-0.0002890464664516919,-0.00012866741851904899,0.0,0.0,1.3173487273347047e-05,0.0,0.0,0.00015302097310009494,0.0,0.0,0.0,4.221351023394971e-08,8.636971124853036e-09,3.8034624761163265e-13,4.221351023394971e-08,8.636971124853036e-09,3.8034624761163265e-13
0.4400000000000002,9.687632382951612,-0.0014141659317113758,-0.0002882844957019187,-0.0001288142599020433,0.0,0.0,1.4775457892324036e-05,0.0,0.0,0.0001675329966137512,0.0,0.0,0.0,4.535217834616631e-08,9.278056721725332e-09,4.2140367000747473e-13,4.535217834616631e-08,9.278056721725332e-09,4.2140367000747473e-13
0.45000000000000023,9.686213434619189,-0.001410594246638971,-0.00028754013662701637,-0.00012894514522944118,0.0,0.0,1.652740962197955e-05,0.0,0.0,0.00018302376194822499,0.0,0.0,0.0,4.8617164623736154e-08,9.944885214082226e-09,4.653594302630724e-13,4.8617164623736154e-08,9.944885214082226e-09,4.653594302630724e-13
0.46000000000000024,9.684839730328724,-0.0014071417902010246,-0.00028681979513073383,-0.0001290616742733528,0.0,0.0,1.843932771891902e-05,0.0,0.0,0.00019953291990930364,0.0,0.0,0.0,5.200876385807122e-08,1.0637513472054664e-08,5.12306346544644e-13,5.200876385807122e-08,1.0637513472054664e-08,5.12306346544644e-13
0.47000000000000025,9.683510662231262,-0.0014038323824695598,-0.0002861282923140482,-0.00012916529119420253,0.0,0.0,2.0521596412848618e-05,0.0,0.0,0.00021710061144052795,0.0,0.0,0.0,5.552719173184402e-08,1.1355982097645416e-08,5.623358561760145e-13,5.552719173184402e-08,1.1355982097645416e-08,5.623358561760145e-13
0.48000000000000026,9.682225624179097,-0.0014006829994331657,-0.00028546907247195346,-0.0001292572996145826,0.0,0.0,2.2785003722023252e-05,0.0,0.0,0.00023576745045678654,0.0,0.0,0.0,5.91725847785904e-08,1.210031543219169e-08,6.155379278804578e-13,5.91725847785904e-08,1.210031543219169e-08,6.155379278804578e-13
0.49000000000000027,9.680984011899293,-0.001397704734191913,-0.00028484439659905766,-0.00012933887623090996,0.0,0.0,2.5240746097615546e-05,0.0,0.0,0.00025557450679492303,0.0,0.0,0.0,6.29449997834008e-08,1.2870521451905275e-08,6.720009597873466e-13,6.29449997834008e-08,1.2870521451905275e-08,6.720009597873466e-13
0.5000000000000002,9.679785223160879,-0.0013949036833341062,-0.0002842555207400997,-0.00012941108310526517,0.0,0.0,2.7900432898176006e-05,0.0,0.0,0.00027656328928135523,0.0,0.0,0.0,6.684441275635337e-08,1.3666591577865007e-08,7.318116640645422e-13,6.684441275635337e-08,1.3666591577865007e-08,7.318116640645422e-13
0.5100000000000002,9.678628657935755,-0.0013922817569737918,-0.00028370285890244324,-0.00012947487876557837,0.0,0.0,3.077609069535438e-05,0.0,0.0,0.00029877572891670676,0.0,0.0,0.0,7.087071760088618e-08,1.4488500424926298e-08,7.950549394436301e-13,7.087071760088618e-08,1.4488500424926298e-08,7.950549394436301e-13
0.5200000000000002,9.67751371855349,-0.001389837412514231,-0.00028318613056412716,-0.00012953112823007175,0.0,0.0,3.388016741205249e-05,0.0,0.0,0.0003222541621774516,0.0,0.0,0.0,7.502372458838723e-08,1.5336205511812646e-08,8.618137332125054e-13,7.502372458838723e-08,1.5336205511812646e-08,8.618137332125054e-13
0.5300000000000002,9.676439809850107,-0.0013875663134981368,-0.00028270449306867264,-0.00012958061206044767,0.0,0.0,3.7225536294178415e-05,0.0,0.0,0.00034704131443457,0.0,0.0,0.0,7.930315873843092e-08,1.620964695227011e-08,9.321688944661266e-13,7.930315873843092e-08,1.620964695227011e-08,9.321688944661266e-13
0.5400000000000003,9.675406339311008,-0.001385461915940995,-0.00028225665940368594,-0.00012962403453823805,0.0,0.0,4.0825499717172444e-05,0.0,0.0,0.0003731802834892171,0.0,0.0,0.0,8.370865819174849e-08,1.7108747144686356e-08,1.0061990205403714e-12,8.370865819174849e-08,1.7108747144686356e-08,1.0061990205403714e-12
0.5500000000000003,9.67441271720814,-0.0013835159853485164,-0.0002818410020198071,-0.00012966203104943357,0.0,0.0,4.469379282847472e-05,0.0,0.0,0.0004007145232254048,0.0,0.0,0.0,8.82397726505771e-08,1.803341047507889e-08,1.0839802986157332e-12,8.82397726505771e-08,1.803341047507889e-08,1.0839802986157332e-12
0.5600000000000003,9.673458356731564,-0.0013817190482227843,-0.00028145564346572554,-0.00012969517475414636,0.0,0.0,4.884458702710474e-05,0.0,0.0,0.0004296878273796947,0.0,0.0,0.0,9.289596194880131e-08,1.8983523045904497e-08,1.1655863444770764e-12,9.289596194880131e-08,1.8983523045904497e-08,1.1655863444770764e-12
0.5700000000000003,9.672542674115475,-0.0013800607822890974,-0.0002810985346989619,-0.00012972398261086254,0.0,0.0,5.329249328152289e-05,0.0,0.0,0.00046014431342790386,0.0,0.0,0.0,9.767659480254235e-08,1.9958952440786206e-08,1.2510880403630344e-12,9.767659480254235e-08,1.9958952440786206e-08,1.2510880403630344e-12
0.5800000000000003,9.671665088758886,-0.0013785303499527263,-0.0002807675219862352,-0.0001297489208178058,0.0,0.0,5.8052565286944105e-05,0.0,0.0,0.0004921284065888235,0.0,0.0,0.0,1.0258094778076213e-07,2.0959547533034388e-08,1.34055337374351e-12,1.0258094778076213e-07,2.0959547533034388e-08,1.34055337374351e-12
0.5900000000000003,9.670825023341049,-0.0013771166796435672,-0.000280460403335389,-0.00012977040972785164,0.0,0.0,6.314030246327367e-05,0.0,0.0,0.0005256848239449491,0.0,0.0,0.0,1.0760820452518226e-07,2.198513834378513e-08,1.4340472787353945e-12,1.0760820452518226e-07,2.198513834378513e-08,1.4340472787353945e-12
0.6000000000000003,9.670021903931682,-0.0013758086997491526,-0.0002801749754080685,-0.00012978882828821174,0.0,0.0,6.857165279483557e-05,0.0,0.0,0.0005608585586802234,0.0,0.0,0.0,1.1275745523947814e-07,2.3035535953711674e-08,1.5316314817135306e-12,1.1275745523947814e-07,2.3035535953711674e-08,1.5316314817135306e-12
0.6100000000000003,9.66925516009625,-0.00137459552978978,-0.00027990907185186995,-0.00012980451805064022,0.0,0.0,7.436301551306313e-05,0.0,0.0,0.0005976948644347924,0.0,0.0,0.0,1.180276964593541e-07,2.4110532470596457e-08,1.6333643525037403e-12,1.180276964593541e-07,2.4110532470596457e-08,1.6333643525037403e-12
0.6200000000000003,9.668524224996274,-0.0013734666333723073,-0.00027966059396586606,-0.00012981778679416986,0.0,0.0,8.053124362332248e-05,0.0,0.0,0.0006362392397767714,0.0,0.0,0.0,1.2341783110777586e-07,2.520990105358861e-08,1.7393007623644721e-12,1.2341783110777586e-07,2.520990105358861e-08,1.7393007623644721e-12
0.6300000000000003,9.667828535484869,-0.00137241193728511,-0.00027942753457776856,-0.00012982891179744377,0.0,0.0,8.709364627703853e-05,0.0,0.0,0.0006765374127910269,0.0,0.0,0.0,1.2892666883332064e-07,2.633339599371212e-08,1.8494919497789024e-12,1.2892666883332064e-07,2.633339599371212e-08,1.8494919497789024e-12
0.6400000000000003,9.667167532197618,-0.0013714219208800368,-0.0002792079959664477,-0.00012983814279485188,0.0,0.0,9.406799099029404e-05,0.0,0.0,0.0007186353257849674,0.0,0.0,0.0,1.3455292662429277e-07,2.748075284913224e-08,1.963985394895713e-12,1.3455292662429277e-07,2.748075284913224e-08,1.963985394895713e-12
0.6500000000000004,9.666540659638837,-0.001370487679638744,-0.00027900020261320367,-0.0001298457046470527,0.0,0.0,0.00010147250571007146,0.0,0.0,0.0007625791201113491,0.0,0.0,0.0,1.4029522968688854e-07,2.8651688632818822e-08,2.0828247032780127e-12,1.4029522968688854e-07,2.8651688632818822e-08,2.0828247032780127e-12
0.6600000000000004,9.665947366263408,-0.001369600966551313,-0.0002788025095104108,-0.00012985179975320247,0.0,0.0,0.000109325880729308,0.0,0.0,0.0008084151211080926,0.0,0.0,0.0,1.461521125722315e-07,2.9845902049558386e-08,2.206049499449842e-12,1.461521125722315e-07,2.9845902049558386e-08,2.206049499449842e-12
0.6700000000000004,9.66538710455426,-0.0013687542146521873,-0.00027861340669887665,-0.00012985661023037914,0.0,0.0,0.00011764727045193401,0.0,0.0,0.0008561898231551121,0.0,0.0,0.0,1.5212202053446644e-07,3.106307377874354e-08,2.3336953305707946e-12,1.5212202053446644e-07,3.106307377874354e-08,2.3336953305707946e-12
0.6800000000000004,9.664859331095583,-0.0013679405437703731,-0.00027843152064715407,-0.00012986029988207344,0.0,0.0,0.00012645629500906448,0.0,0.0,0.000905949874848158,0.0,0.0,0.0,1.582033111002169e-07,3.2302866798997496e-08,2.4657935804236017e-12,1.582033111002169e-07,3.2302866798997496e-08,2.4657935804236017e-12
0.6900000000000004,9.664363506641926,-0.0013671537542627125,-0.000278255613027964,-0.00012986301597681641,0.0,0.0,0.00013577304172751421,0.0,0.0,0.0009577420642896696,0.0,0.0,0.0,1.6439425582850983e-07,3.356492675045389e-08,2.6023713937684594e-12,1.6439425582850983e-07,3.356492675045389e-08,2.6023713937684594e-12
0.7000000000000004,9.66389909618325,-0.0013663883102162714,-0.00027808457738970875,-0.00012986489085467772,0.0,0.0,0.0001456180664518066,0.0,0.0,0.0010116133044966434,0.0,0.0,0.0,1.706930422396538e-07,3.484888233039393e-08,2.7434516110021356e-12,1.706930422396538e-07,3.484888233039393e-08,2.7434516110021356e-12
0.7100000000000004,9.66346556900603,-0.0013656393143320694,-0.00027791743416616995,-0.00012986604337851578,0.0,0.0,0.00015601239472084593,0.0,0.0,0.0010676106189255105,0.0,0.0,0.0,1.7709777589146146e-07,3.615434571792576e-08,2.8890527129599133e-12,1.7709777589146146e-07,3.615434571792576e-08,2.8890527129599133e-12
0.7200000000000004,9.66306239875056,-0.0013649024764407233,-0.0002777533244147895,-0.00012986658024516154,0.0,0.0,0.00016697752280042387,0.0,0.0,0.001125781127114029,0.0,0.0,0.0,1.8360648258153167e-07,3.748091302346004e-08,3.0391887756139645e-12,1.8360648258153167e-07,3.748091302346004e-08,3.0391887756139645e-12
0.7300000000000004,9.662689063464487,-0.0013641740773533701,-0.0002775915026242259,-0.00012986659716966934,0.0,0.0,0.00017853541857272952,0.0,0.0,0.0011861720304401858,0.0,0.0,0.0,1.9021711065500623e-07,3.882816475887692e-08,3.193869434352606e-12,1.9021711065500623e-07,3.882816475887692e-08,3.193869434352606e-12
0.7400000000000004,9.662345045652735,-0.001363450929519783,-0.0002774313288854581,-0.00012986617995513008,0.0,0.0,0.00019070852228403405,0.0,0.0,0.0012488305979981148,0.0,0.0,0.0,1.9692753339818013e-07,4.01956663244754e-08,3.35309985746996e-12,1.9692753339818013e-07,4.01956663244754e-08,3.35309985746996e-12
0.7500000000000004,9.662029832323851,-0.0013627303357514988,-0.00027727226067782493,-0.0001298654054591247,0.0,0.0,0.000203519747151719,0.0,0.0,0.0013138041525910236,0.0,0.0,0.0,2.0373555149955383e-07,4.158296850903876e-08,3.5168807284544273e-12,2.0373555149955383e-07,4.158296850903876e-08,3.5168807284544273e-12
0.7600000000000005,9.661742915032967,-0.0013620100470710234,-0.00027711384448181645,-0.00012986434246659996,0.0,0.0,0.00021699247983181946,0.0,0.0,0.001381140056841135,0.0,0.0,0.0,2.1063889556126272e-07,4.298960799962093e-08,3.685208236635273e-12,2.1063889556126272e-07,4.298960799962093e-08,3.685208236635273e-12
0.7700000000000005,9.66148378992133,-0.0013612882205693965,-0.00027695570739471914,-0.00012986305247842482,0.0,0.0,0.00023115058074825125,0.0,0.0,0.001450885699416639,0.0,0.0,0.0,2.1763522864530041e-07,4.441510789795467e-08,3.8580740757291644e-12,2.1763522864530041e-07,4.441510789795467e-08,3.8580740757291644e-12
0.7800000000000005,9.661251957752635,-0.0013605633779927805,-0.00027679754889278584,-0.0001298615904235127,0.0,0.0,0.00024601838428489316,0.0,0.0,0.001523088481375659,0.0,0.0,0.0,2.24722148840469e-07,4.585897824068746e-08,4.0354654498203824e-12,2.24722148840469e-07,4.585897824068746e-08,4.0354654498203824e-12
0.7900000000000005,9.66104692394615,-0.0013598343656348747,-0.0002766391328549214,-0.00012986000530220156,0.0,0.0,0.00026162069884169356,0.0,0.0,0.0015977958026272302,0.0,0.0,0.0,2.31897191837554e-07,4.732071652096217e-08,4.217365086309421e-12,2.31897191837554e-07,4.732071652096217e-08,4.217365086309421e-12
0.8000000000000005,9.660868198606753,-0.0013591003159838927,-0.0002764802799370933,-0.0001298583407672179,0.0,0.0,0.00027798280675597173,0.0,0.0,0.0016750550485092885,0.0,0.0,0.0,2.391578335017521e-07,4.879980820916742e-08,4.403751255372604e-12,2.391578335017521e-07,4.879980820916742e-08,4.403751255372604e-12
0.8100000000000005,9.660715296552,-0.0013583606114609733,-0.0002763208603645545,-0.00012985663564844284,0.0,0.0,0.0002951304640900846,0.0,0.0,0.0017549135764836723,0.0,0.0,0.0,2.4650149243288074e-07,5.029572727098006e-08,4.594597795489197e-12,2.4650149243288074e-07,5.029572727098006e-08,4.594597795489197e-12
0.8200000000000005,9.660587737336256,-0.0013576148504894376,-0.0002761607871893494,-0.00012985492442687003,0.0,0.0,0.0003130899002866286,0.0,0.0,0.0018374187029481393,0.0,0.0,0.0,2.5392553250533635e-07,5.1807936681110935e-08,4.789874144611655e-12,2.5392553250533635e-07,5.1807936681110935e-08,4.789874144611655e-12
0.8300000000000005,9.66048504527199,-0.0013568628160504788,-0.00027600001004385094,-0.00012985323766261895,0.0,0.0,0.00033188781769234596,0.0,0.0,0.0019226176901653922,0.0,0.0,0.0,2.614272653811142e-07,5.333588893143225e-08,4.989545376576684e-12,2.614272653811142e-07,5.333588893143225e-08,4.989545376576684e-12
0.8400000000000005,9.660406749448358,-0.0013561044468100257,-0.0002758385094069766,-0.00012985160238145632,0.0,0.0,0.000351551390951907,0.0,0.0,0.00201055773330912,0.0,0.0,0.0,2.690039529904665e-07,5.4879026532416885e-08,5.193572242380177e-12,2.690039529904665e-07,5.4879026532416885e-08,5.193572242380177e-12
0.8500000000000005,9.66035238374708,-0.001355339810841848,-0.00027567629138792587,-0.00012985004242387275,0.0,0.0,0.0003721082662727379,0.0,0.0,0.0021012859476270455,0.0,0.0,0.0,2.766528099759206e-07,5.643678250704852e-08,5.401911215965592e-12,2.766528099759206e-07,5.643678250704852e-08,5.401911215965592e-12
0.8600000000000005,9.660321486855768,-0.00135456908192293,-0.0002755133830223057,-0.00012984857876032808,0.0,0.0,0.0003935865605620639,0.0,0.0,0.0021948493557209956,0.0,0.0,0.0,2.8437100609642887e-07,5.800858087656938e-08,5.6145145442030576e-12,2.8437100609642887e-07,5.800858087656938e-08,5.6145145442030576e-12
0.8700000000000006,9.660313602278707,-0.0013537925183373435,-0.00027534982806789006,-0.00012984722977580647,0.0,0.0,0.00041601486043733795,0.0,0.0,0.002291294874943974,0.0,0.0,0.0,2.9215566858934636e-07,5.9593837137616445e-08,5.831330300764116e-12,2.9215566858934636e-07,5.9593837137616445e-08,5.831330300764116e-12
0.8800000000000006,9.660328278345247,-0.001353010444093667,-0.0002751856832807531,-0.00012984601152696626,0.0,0.0,0.00043942222111122516,0.0,0.0,0.00239066930491425,0.0,0.0,0.0,3.000038844887515e-07,6.119195873046044e-08,6.0523024436242394e-12,3.000038844887515e-07,6.119195873046044e-08,6.0523024436242394e-12
0.8900000000000006,9.660365068215794,-0.0013522232324368897,-0.0002750210151480086,-0.0001298449379740758,0.0,0.0,0.00046383816515231484,0.0,0.0,0.002493019315146462,0.0,0.0,0.0,3.079127028993317e-07,6.280234549820071e-08,6.277370875951414e-12,3.079127028993317e-07,6.280234549820071e-08,6.277370875951414e-12
0.9000000000000006,9.660423529885568,-0.0013514312915180876,-0.00027485589704968167,-0.00012984402119061586,0.0,0.0,0.0004892926811227252,0.0,0.0,0.0025983914327997295,0.0,0.0,0.0,3.158791372256556e-07,6.442439013688923e-08,6.506471510163871e-12,3.158791372256556e-07,6.442439013688923e-08,6.506471510163871e-12
0.9100000000000006,9.660503226186107,-0.0013506350520732689,-0.0002746904068200779,-0.00012984327155242877,0.0,0.0,0.0005158162220937778,0.0,0.0,0.00270683203054278,0.0,0.0,0.0,3.239001673571581e-07,6.605747863665595e-08,6.739536334963159e-12,3.239001673571581e-07,6.605747863665595e-08,6.739536334963159e-12
0.9200000000000006,9.660603724784654,-0.0013498349569556023,-0.00027452462467747804,-0.0001298426979085406,0.0,0.0,0.0005434397040409066,0.0,0.0,0.0028183873145360876,0.0,0.0,0.0,3.3197274180956674e-07,6.770099071398835e-08,6.976493485169803e-12,3.3197274180956674e-07,6.770099071398835e-08,6.976493485169803e-12
0.9300000000000006,9.660724598181499,-0.0013490314523616044,-0.0002743586314902651,-0.00012984230773533187,0.0,0.0,0.0005721945041189725,0.0,0.0,0.0029331033125310204,0.0,0.0,0.0,3.400937798238217e-07,6.935430023538027e-08,7.217267314207753e-12,3.400937798238217e-07,6.935430023538027e-08,7.217267314207753e-12
0.9400000000000006,9.660865423705259,-0.0013482249805923038,-0.0002741925073479282,-0.00012984210727571234,0.0,0.0,0.0006021124588191575,0.0,0.0,0.003051025862086009,0.0,0.0,0.0,3.4826017342378405e-07,7.101677563261453e-08,7.461778469100806e-12,3.4826017342378405e-07,7.101677563261453e-08,7.461778469100806e-12
0.9500000000000006,9.661025783506291,-0.0013474159741929269,-0.00027402633040553536,-0.0001298421016648293,0.0,0.0,0.0006332258620086023,0.0,0.0,0.003172200598899721,0.0,0.0,0.0,3.564687894341969e-07,7.268778030997617e-08,7.709943967858587e-12,3.564687894341969e-07,7.268778030997617e-08,7.709943967858587e-12
0.9600000000000006,9.661205264548208,-0.0013466048513197757,-0.00027386017597171383,-0.0001298422950434491,0.0,0.0,0.000665567462853962,0.0,0.0,0.0032966729452612404,0.0,0.0,0.0,3.64716471460481e-07,7.436667304371599e-08,7.96167727914248e-12,3.64716471460481e-07,7.436667304371599e-08,7.96167727914248e-12
0.9700000000000006,9.661403458597595,-0.0013457920121893636,-0.0002736941158111226,-0.0001298426906603506,0.0,0.0,0.0006991704636300502,0.0,0.0,0.0034244880986172826,0.0,0.0,0.0,3.730000418319928e-07,7.605280837409271e-08,8.216888404111755e-12,3.730000418319928e-07,7.605280837409271e-08,8.216888404111755e-12
0.9800000000000006,9.66161996221199,-0.001344977836473083,-0.00027352821763430065,-0.00012984329096475976,0.0,0.0,0.0007340685174147369,0.0,0.0,0.0035556910202563952,0.0,0.0,0.0,3.813163035103956e-07,7.774553699032768e-08,8.475483960359285e-12,3.813163035103956e-07,7.774553699032768e-08,8.475483960359285e-12
0.9900000000000007,9.661854376726199,-0.001344162681509199,-0.00027336254474935443,-0.00012984409768971013,0.0,0.0,0.0007702957256712774,0.0,0.0,0.0036903264241101835,0.0,0.0,0.0,3.8966204196475597e-07,7.944420610879472e-08,8.737367267851927e-12,3.8966204196475597e-07,7.944420610879472e-08,8.737367267851927e-12
1.0000000000000007,9.662106308236984,-0.0013433468812135286,-0.0002731971558518117,-0.00012984511192737705,0.0,0.0,0.0008078866357192346,0.0,0.0,0.0038284387656715565,0.0,0.0,0.0,3.9803402701492644e-07,8.114815984476151e-08,9.002438436796435e-12,3.9803402701492644e-07,8.114815984476151e-08,9.002438436796435e-12
1.0100000000000007,9.662375367586204,-0.0013425307455798567,-0.00027303210493113766,-0.0001298463341969275,0.0,0.0,0.0008468762380951724,0.0,0.0,0.0039700722310299676,0.0,0.0,0.0,4.064290146446851e-07,8.285673957797626e-08,9.270594457354304e-12,4.064290146446851e-07,8.285673957797626e-08,9.270594457354304e-12
1.0200000000000007,9.662661170342464,-0.0013417145606709115,-0.0002728674412741116,-0.000129847764505948,0.0,0.0,0.0008872999638042846,0.0,0.0,0.004115270726023678,0.0,0.0,0.0,4.148437487860025e-07,8.456928431237686e-08,9.541729291131672e-12,4.148437487860025e-07,8.456928431237686e-08,9.541729291131672e-12
1.0300000000000007,9.662963336781305,-0.0013408985890103965,-0.00027270320954729885,-0.0001298494024056308,0.0,0.0,0.0009291936814641306,0.0,0.0,0.004264077865509039,0.0,0.0,0.0,4.2327496307568727e-07,8.628513103017361e-08,9.815733964370839e-12,4.2327496307568727e-07,8.628513103017361e-08,9.815733964370839e-12
1.0400000000000007,9.663281491864057,-0.00134008307029615,-0.00027253944994276065,-0.00012985124704076496,0.0,0.0,0.0009725936943416518,0.0,0.0,0.004416536962746766,0.0,0.0,0.0,4.3171938258553205e-07,8.800361504053094e-08,1.0092496662770009e-11,4.3171938258553205e-07,8.800361504053094e-08,1.0092496662770009e-11
1.0500000000000007,9.663615265215329,-0.0013392682223635265,-0.0002723761983729584,-0.00012985329719477823,0.0,0.0,0.0010175367372846336,0.0,0.0,0.004572691018905246,0.0,0.0,0.0,4.401737255269547e-07,8.972407032304944e-08,1.0371902827857041e-11,4.401737255269547e-07,8.972407032304944e-08,1.0371902827857041e-11
1.0600000000000007,9.663964291099214,-0.001338454242336781,-0.00027221348670258144,-0.00012985555133029835,0.0,0.0,0.0010640599735487859,0.0,0.0,0.00473258271268085,0.0,0.0,0.0,4.4863470493099316e-07,9.144582986621996e-08,1.0653835254841355e-11,4.4863470493099316e-07,9.144582986621996e-08,1.0653835254841355e-11
1.0700000000000007,9.664328208394334,-0.0013376413079144672,-0.00027205134300643607,-0.00012985800762586305,0.0,0.0,0.0011122009915216125,0.0,0.0,0.00489625439003525,0.0,0.0,0.0,4.5709903030437235e-07,9.316822600099655e-08,1.0938174191866025e-11,4.5709903030437235e-07,9.316822600099655e-08,1.0938174191866025e-11
1.0800000000000007,9.664706660567663,-0.0013368295787422172,-0.0002718897918443229,-0.0001298606640089528,0.0,0.0,0.0011619978013442385,0.0,0.0,0.005063748054049759,0.0,0.0,0.0,4.655634092622506e-07,9.489059072960978e-08,1.1224797440580052e-11,4.655634092622506e-07,9.489059072960978e-08,1.1224797440580052e-11
1.0900000000000007,9.665099295647249,-0.0013360191978335414,-0.0002717288545450831,-0.0001298635181857768,0.0,0.0,0.0012134888314323643,0.0,0.0,0.005235105354896682,0.0,0.0,0.0,4.740245491381062e-07,9.661225604971536e-08,1.1513580457947732e-11,4.740245491381062e-07,9.661225604971536e-08,1.1513580457947732e-11
1.1000000000000008,9.665505766193885,-0.0013352102930055325,-0.00027156854949320834,-0.00012986656766820774,0.0,0.0,0.0012667129248975224,0.0,0.0,0.005410367579927675,0.0,0.0,0.0,4.824791585711363e-07,9.833255427395327e-08,1.1804396459209839e-11,4.824791585711363e-07,9.833255427395327e-08,1.1804396459209839e-11
1.1100000000000008,9.665925729271741,-0.0013344029783020851,-0.00027140889241268737,-0.0001298698097979537,0.0,0.0,0.0013217093358697978,0.0,0.0,0.00558957564387911,0.0,0.0,0.0,4.909239490714039e-07,1.0005081834496733e-07,1.2097116521908252e-11,4.909239490714039e-07,1.0005081834496733e-07,1.2097116521908252e-11
1.1200000000000008,9.666358846418042,-0.0013335973553826488,-0.0002712498966436849,-0.00012987324176843431,0.0,0.0,0.0013785177257231917,0.0,0.0,0.0057727700791944765,0.0,0.0,0.0,4.993556365629002e-07,1.0176638214591994e-07,1.2391609690883362e-11,4.993556365629002e-07,1.0176638214591994e-07,1.2391609690883362e-11
1.1300000000000008,9.666804783611797,-0.0013327935148589709,-0.00027109157340868815,-0.00012987686064452037,0.0,0.0,0.0014371781592047907,0.0,0.0,0.005959991026463768,0.0,0.0,0.0,5.077709429045784e-07,1.0347858080651533e-07,1.26877430841509e-11,5.077709429045784e-07,1.0347858080651533e-07,1.26877430841509e-11
1.1400000000000008,9.66726321124169,-0.0013319915375664374,-0.0002709339320653901,-0.0001298806633801726,0.0,0.0,0.0014977311004689166,0.0,0.0,0.006151278224979894,0.0,0.0,0.0,5.16166597389349e-07,1.0518675100453206e-07,1.2985381999562775e-11,5.16166597389349e-07,1.0518675100453206e-07,1.2985381999562775e-11
1.1500000000000008,9.667733804073094,-0.0013311914957602363,-0.00027077698034449793,-0.00012988464683447306,0.0,0.0,0.0015602174090174254,0.0,0.0,0.006346671003412103,0.0,0.0,0.0,5.245393382209655e-07,1.0689023126285168e-07,1.3284390022154568e-11,5.245393382209655e-07,1.0689023126285168e-07,1.3284390022154568e-11
1.1600000000000008,9.668216241214319,-0.0013303934542295579,-0.0002706207245710721,-0.00012988880778605705,0.0,0.0,0.0016246783355473252,0.0,0.0,0.006546208270596418,0.0,0.0,0.0,5.328859139686484e-07,1.0858836224195714e-07,1.3584629132080449e-11,5.328859139686484e-07,1.0858836224195714e-07,1.3584629132080449e-11
1.1700000000000008,9.668710206082103,-0.0013295974713257665,-0.0002704651698686404,-0.00012989314294598237,0.0,0.0,0.0016911555177068858,0.0,0.0,0.00674992850644309,0.0,0.0,0.0,5.412030849992784e-07,1.1028048702786769e-07,1.3885959813035264e-11,5.412030849992784e-07,1.1028048702786769e-07,1.3885959813035264e-11
1.1800000000000008,9.669215386366403,-0.0013288035999026557,-0.0002703103203457554,-0.0001298976489694209,0.0,0.0,0.0017596909757614,0.0,0.0,0.006957869752961045,0.0,0.0,0.0,5.494876248869288e-07,1.1196595141546801e-07,1.4188241161062382e-11,5.494876248869288e-07,1.1196595141546801e-07,1.4188241161062382e-11
1.1900000000000008,9.669731473994513,-0.0013280118881687428,-0.0002701561792649354,-0.00012990232246619572,0.0,0.0,0.0018303271081697872,0.0,0.0,0.007170069605399367,0.0,0.0,0.0,5.577363217994808e-07,1.1364410418718268e-07,1.449133099364523e-11,5.577363217994808e-07,1.1364410418718268e-07,1.449133099364523e-11
1.2000000000000008,9.670258165094541,-0.0013272223804531,-0.00027000274919440284,-0.00012990716001013244,0.0,0.0,0.001903106687073186,0.0,0.0,0.0073865652035057724,0.0,0.0,0.0,5.659459798620564e-07,1.1531429738694489e-07,1.4795085958980333e-11,5.659459798620564e-07,1.1531429738694489e-07,1.4795085958980333e-11
1.2100000000000009,9.670795159958335,-0.0013264351178874205,-0.0002698500321430997,-0.0001299121581475619,0.0,0.0,0.001978072853696719,0.0,0.0,0.007607393222902119,0.0,0.0,0.0,5.74113420496969e-07,1.1697588658940286e-07,1.509936164532955e-11,5.74113420496969e-07,1.1697588658940286e-07,1.509936164532955e-11
1.2200000000000009,9.671342163003818,-0.0013256501390079673,-0.0002696980296797452,-0.00012991731340492133,0.0,0.0,0.0020552691136656045,0.0,0.0,0.007832589866576907,0.0,0.0,0.0,5.822354837399015e-07,1.1862823116430753e-07,1.5404012690349794e-11,5.822354837399015e-07,1.1862823116430753e-07,1.5404012690349794e-11
1.2300000000000009,9.671898882736826,-0.0013248674802817308,-0.00026954674303681893,-0.0001299226222955824,0.0,0.0,0.002134739332236769,0.0,0.0,0.008062190856494799,0.0,0.0,0.0,5.903090295320087e-07,1.2027069453602472e-07,1.57088928902991e-11,5.903090295320087e-07,1.2027069453602472e-07,1.57088928902991e-11
1.2400000000000009,9.672465031712475,-0.001324087176561631,-0.0002693961732003713,-0.00012992808132595118,0.0,0.0,0.0022165277294471436,0.0,0.0,0.00829623142532316,0.0,0.0,0.0,5.983309389876462e-07,1.2190264443811404e-07,1.601385530901905e-11,5.983309389876462e-07,1.2190264443811404e-07,1.601385530901905e-11
1.2500000000000009,9.67304032649607,-0.0013233092614760443,-0.00026924632098685434,-0.0001299336870009945,0.0,0.0,0.0023006788751798136,0.0,0.0,0.008534746308275599,0.0,0.0,0.0,6.062981156374393e-07,1.2352345316291955e-07,1.6318752386594694e-11,6.062981156374393e-07,1.2352345316291955e-07,1.6318752386594694e-11
1.260000000000001,9.673624487623606,-0.0013225337677578485,-0.0002690971871078256,-0.00012993943582906495,0.0,0.0,0.0023872376841491847,0.0,0.0,0.008777769735072535,0.0,0.0,0.0,6.142074866464126e-07,1.2513249780612016e-07,1.6623436047595028e-11,6.142074866464126e-07,1.2513249780612016e-07,1.6623436047595028e-11
1.270000000000001,9.674217239561901,-0.0013217607275185588,-0.000268948772223812,-0.00012994532432636548,0.0,0.0,0.0024762494108063436,0.0,0.0,0.009025335422018756,0.0,0.0,0.0,6.220560040069156e-07,1.2672916050618797e-07,1.6927757808798444e-11,6.220560040069156e-07,1.2672916050618797e-07,1.6927757808798444e-11
1.280000000000001,9.674818310668376,-0.0013209901724728606,-0.00026880107698827767,-0.0001299513490208012,0.0,0.0,0.0025677596441657726,0.0,0.0,0.009277476564198006,0.0,0.0,0.0,6.298406457060989e-07,1.2831282867870868e-07,1.723156888630987e-11,6.298406457060989e-07,1.2831282867870868e-07,1.723156888630987e-11
1.290000000000001,9.675427433150528,-0.0013202221341187311,-0.0002686541020828291,-0.0001299575064555022,0.0,0.0,0.0026618143025546053,0.0,0.0,0.009534225827784586,0.0,0.0,0.0,6.375584168677159e-07,1.298828952455216e-07,1.7534720301978526e-11,6.375584168677159e-07,1.298828952455216e-07,1.7534720301978526e-11
1.300000000000001,9.676044343025112,-0.0013194566438782692,-0.000268507848244556,-0.0001299637931918757,0.0,0.0,0.0027584596282855733,0.0,0.0,0.00979561534247197,0.0,0.0,0.0,6.452063508680401e-07,1.31438758858639e-07,1.7837062989027392e-11,6.452063508680401e-07,1.31438758858639e-07,1.7837062989027392e-11
1.310000000000001,9.676668780077083,-0.0013186937332039929,-0.0002683623162865281,-0.00012997020581244427,0.0,0.0,0.0028577421822548288,0.0,0.0,0.010061676694018393,0.0,0.0,0.0,6.527815104257161e-07,1.3297982411891235e-07,1.813844789680815e-11,6.527815104257161e-07,1.3297982411891235e-07,1.813844789680815e-11
1.320000000000001,9.677300487818309,-0.0013179334336551182,-0.0002682175071123493,-0.00012997674092316003,0.0,0.0,0.0029597088384658134,0.0,0.0,0.010332440916909522,0.0,0.0,0.0,6.602809886653835e-07,1.3450550178941312e-07,1.8438726094597943e-11,6.602809886653835e-07,1.3450550178941312e-07,1.8438726094597943e-11
1.330000000000001,9.677939213446074,-0.0013171757769480112,-0.0002680734217255963,-0.0001299833951556833,0.0,0.0,0.003064406778480324,0.0,0.0,0.010607938487138077,0.0,0.0,0.0,6.677019101549387e-07,1.3601520900350535e-07,1.8737748874357024e-11,6.677019101549387e-07,1.3601520900350535e-07,1.8737748874357024e-11
1.340000000000001,9.67858470780143,-0.0013164207949847172,-0.00026793006123484965,-0.00012999016516915442,0.0,0.0,0.003171883485797976,0.0,0.0,0.010888199315100499,0.0,0.0,0.0,6.750414319163044e-07,1.3750836946758556e-07,1.9035367852368754e-11,6.750414319163044e-07,1.3750836946758556e-07,1.9035367852368754e-11
1.350000000000001,9.679236725327423,-0.0013156685198630357,-0.0002677874268551393,-0.0001299970476519785,0.0,0.0,0.0032821867401652107,0.0,0.0,0.011173252738610612,0.0,0.0,0.0,6.822967444096429e-07,1.389844136584789e-07,1.933143506968735e-11,6.822967444096429e-07,1.389844136584789e-07,1.933143506968735e-11
1.360000000000001,9.679895024027157,-0.0013149189838714372,-0.00026764551990634655,-0.00013000403932313993,0.0,0.0,0.003395364611815023,0.0,0.0,0.011463127516030317,0.0,0.0,0.0,6.894650724909148e-07,1.4044277901547397e-07,1.9625803091320072e-11,6.894650724909148e-07,1.4044277901547397e-07,1.9625803091320072e-11
1.370000000000001,9.680559365421804,-0.0013141722194716674,-0.00026750434180914154,-0.0001300111369336311,0.0,0.0,0.0035114654556385816,0.0,0.0,0.011757851819517273,0.0,0.0,0.0,6.965436763427589e-07,1.4188291012699395e-07,1.9918325104075034e-11,6.965436763427589e-07,1.4188291012699395e-07,1.9918325104075034e-11
1.380000000000001,9.681229514508551,-0.001313428259271645,-0.0002673638940790444,-0.0001300183372673841,0.0,0.0,0.003630537905289917,0.0,0.0,0.012057453228389605,0.0,0.0,0.0,7.035298523786524e-07,1.4330425891189686e-07,2.0208855013007414e-11,7.035298523786524e-07,1.4330425891189686e-07,2.0208855013007414e-11
1.390000000000001,9.68190523971848,-0.001312687135990815,-0.0002672241783189436,-0.00013002563714227774,0.0,0.0,0.0037526308672248335,0.0,0.0,0.012361958722607638,0.0,0.0,0.0,7.104209341203609e-07,1.4470628479540938e-07,2.049724753640097e-11,7.104209341203609e-07,1.4470628479540938e-07,2.049724753640097e-11
1.400000000000001,9.682586312874442,-0.0013119488824200963,-0.0002670851962105586,-0.00013003303341093056,0.0,0.0,0.0038777935146752326,0.0,0.0,0.012671394676372622,0.0,0.0,0.0,7.17214293048681e-07,1.4608845487969616e-07,2.078335829922358e-11,7.17214293048681e-07,1.4608845487969616e-07,2.078335829922358e-11
1.410000000000001,9.683272509148935,-0.0013112135313779695,-0.0002669469495051374,-0.0001300405229613878,0.0,0.0,0.004006075281559994,0.0,0.0,0.01298578685184245,0.0,0.0,0.0,7.239073394275212e-07,1.4745024410907503e-07,2.106704392499932e-11,7.239073394275212e-07,1.4745024410907503e-07,2.106704392499932e-11
1.420000000000001,9.683963607022015,-0.0013104811156642796,-0.00026680944001368837,-0.0001300481027175853,0.0,0.0,0.004137525856333619,0.0,0.0,0.01330516039296447,0.0,0.0,0.0,7.304975231013638e-07,1.4879113542988903e-07,2.134816212604175e-11,7.304975231013638e-07,1.4879113542988903e-07,2.134816212604175e-11
1.430000000000001,9.684659388239226,-0.0013097516680129681,-0.00026667266959701105,-0.00013005576963989371,0.0,0.0,0.004272195175773769,0.0,0.0,0.013629539819425192,0.0,0.0,0.0,7.369823342661858e-07,1.5011061994505195e-07,2.1626571791996684e-11,7.369823342661858e-07,1.5011061994505195e-07,2.1626571791996684e-11
1.440000000000001,9.685359637769634,-0.0013090252210447492,-0.0002665366401556931,-0.00013006352072544904,0.0,0.0,0.004410133418708897,0.0,0.0,0.013958949020717114,0.0,0.0,0.0,7.43359304213914e-07,1.514081970632831e-07,2.1902133076644504e-11,7.43359304213914e-07,1.514081970632831e-07,2.1902133076644504e-11
1.450000000000001,9.68606414376391,-0.0013083018072205734,-0.0002664013536202808,-0.00013007135300836738,0.0,0.0,0.004551390999687126,0.0,0.0,0.014293411250322487,0.0,0.0,0.0,7.496260060505287e-07,1.5268337464305767e-07,2.2174707482916274e-11,7.496260060505287e-07,1.5268337464305767e-07,2.2174707482916274e-11
1.460000000000001,9.686772697512541,-0.0013075814587965335,-0.0002662668119417108,-0.00013007926356003083,0.0,0.0,0.004696018562587558,0.0,0.0,0.014632949120014149,0.0,0.0,0.0,7.557800553879162e-07,1.5393566913129127e-07,2.2444157946079054e-11,7.557800553879162e-07,1.5393566913129127e-07,2.2444157946079054e-11
1.470000000000001,9.687485093404165,-0.001306864207780793,-0.0002661330170821474,-0.0001300872494891107,0.0,0.0,0.0048440669741751635,0.0,0.0,0.01497758459427331,0.0,0.0,0.0,7.618191110096052e-07,1.5516460569678912e-07,2.271034891504959e-11,7.618191110096052e-07,1.5516460569678912e-07,2.271034891504959e-11
1.480000000000001,9.688201128884018,-0.0013061500858928658,-0.00026599997100626357,-0.00013009530794171533,0.0,0.0,0.004995587317600456,0.0,0.0,0.015327338984824409,0.0,0.0,0.0,7.677408755105255e-07,1.5636971835848806e-07,2.2973146431798005e-11,7.677408755105255e-07,1.5636971835848806e-07,2.2973146431798005e-11
1.490000000000001,9.688920604412594,-0.0013054391245255774,-0.00026586767567310447,-0.00013010343610137307,0.0,0.0,0.005150630885845062,0.0,0.0,0.015682232945286936,0.0,0.0,0.0,7.735430959109385e-07,1.575505501085214e-07,2.3232418208805096e-11,7.735430959109385e-07,1.575505501085214e-07,2.3232418208805096e-11
1.500000000000001,9.689643323424415,-0.0013047313547099365,-0.0002657361330284558,-0.00013011163118895297,0.0,0.0,0.005309249175114451,0.0,0.0,0.016042286465944324,0.0,0.0,0.0,7.792235642447078e-07,1.5870665303014374e-07,2.3488033704540527e-11,7.792235642447078e-07,1.5870665303014374e-07,2.3488033704540527e-11
1.5100000000000011,9.690369092287044,-0.0013040268070828324,-0.0002656053449978029,-0.00013011989046261195,0.0,0.0,0.005471493878178873,0.0,0.0,0.01640751886862976,0.0,0.0,0.0,7.847801181220659e-07,1.5983758841054524e-07,2.373986419693013e-11,7.847801181220659e-07,1.5983758841054524e-07,2.373986419693013e-11
1.5200000000000011,9.691097720260275,-0.0013033255118578583,-0.00026547531347992647,-0.00013012821121768402,0.0,0.0,0.005637416877663797,0.0,0.0,0.016777948801729115,0.0,0.0,0.0,7.902106412670742e-07,1.6094292684859798e-07,2.3987782854784513e-11,7.902106412670742e-07,1.6094292684859798e-07,2.3987782854784513e-11
1.5300000000000011,9.691829019455572,-0.0013026274987990249,-0.00026534604034100985,-0.00013013659078644932,0.0,0.0,0.005807070239290931,0.0,0.0,0.017153594235300808,0.0,0.0,0.0,7.95513064029965e-07,1.6202224835757196e-07,2.4231664807162875e-11,7.95513064029965e-07,1.6202224835757196e-07,2.4231664807162875e-11
1.5400000000000011,9.692562804795692,-0.0013019327971973927,-0.0002652175274093623,-0.0001301450265380542,0.0,0.0,0.005980506205071032,0.0,0.0,0.017534472456312716,0.0,0.0,0.0,8.006853638745453e-07,1.6307514246285807e-07,2.4471387210647698e-11,8.006853638745453e-07,1.6307514246285807e-07,2.4471387210647698e-11
1.5500000000000012,9.693298893974625,-0.0013012414358504524,-0.0002650897764706645,-0.00013015351587812005,0.0,0.0,0.006157777186449676,0.0,0.0,0.017920600063996112,0.0,0.0,0.0,8.057255658408867e-07,1.6410120829474307e-07,2.4706829314509303e-11,8.057255658408867e-07,1.6410120829474307e-07,2.4706829314509303e-11
1.5600000000000012,9.694037107417753,-0.0013005534430442357,-0.00026496278926378816,-0.00013016205624864947,0.0,0.0,0.006338935757407152,0.0,0.0,0.018311992965316562,0.0,0.0,0.0,8.106317429835046e-07,1.651000546762792e-07,2.4937872523741075e-11,8.106317429835046e-07,1.651000546762792e-07,2.4937872523741075e-11
1.5700000000000012,9.694777268242284,-0.0012998688465378383,-0.00026483656747707375,-0.0001301706451276484,0.0,0.0,0.006524034647513643,0.0,0.0,0.01870866637056188,0.0,0.0,0.0,8.154020167852477e-07,1.660713002062925e-07,2.516440045994815e-11,8.154020167852477e-07,1.660713002062925e-07,2.516440045994815e-11
1.5800000000000012,9.695519202218001,-0.001299187673550345,-0.0002647111127450174,-0.00013017928002886301,0.0,0.0,0.006713126734940875,0.0,0.0,0.019110634789047076,0.0,0.0,0.0,8.200345575471159e-07,1.6701457333757477e-07,2.5386299020074667e-11,8.200345575471159e-07,1.6701457333757477e-07,2.5386299020074667e-11
1.5900000000000012,9.696262737728295,-0.001298509950749843,-0.00026458642664547,-0.0001301879585015082,0.0,0.0,0.006906265039431403,0.0,0.0,0.019517912024936364,0.0,0.0,0.0,8.245275847542467e-07,1.679295124503069e-07,2.5603456432956846e-11,8.245275847542467e-07,1.679295124503069e-07,2.5603456432956846e-11
1.6000000000000012,9.6970077057315,-0.00129783570424446,-0.00026446251069718797,-0.00013019667812982642,0.0,0.0,0.007103502715226699,0.0,0.0,0.01993051117318207,0.0,0.0,0.0,8.288793674183035e-07,1.6881576592076295e-07,2.581576331369155e-11,8.288793674183035e-07,1.6881576592076295e-07,2.581576331369155e-11
1.6100000000000012,9.697753939722558,-0.001297164959575152,-0.00026433936635772843,-0.00013020543653287825,0.0,0.0,0.007304893043955222,0.0,0.0,0.02034844461558069,0.0,0.0,0.0,8.330882243964975e-07,1.696729921853392e-07,2.6023112715810764e-11,8.330882243964975e-07,1.696729921853392e-07,2.6023112715810764e-11
1.6200000000000012,9.698501275695044,-0.0012964977417100683,-0.00026421699502169645,-0.00013021423136404763,0.0,0.0,0.007510489427481612,0.0,0.0,0.02077172401694583,0.0,0.0,0.0,8.371525246875045e-07,1.7050085979996408e-07,2.622540018125638e-11,8.371525246875045e-07,1.7050085979996408e-07,2.622540018125638e-11
1.6300000000000012,9.699249552103483,-0.0012958340750404244,-0.000264095398019222,-0.00013022306031082304,0.0,0.0,0.00772034538071824,0.0,0.0,0.021200360321398267,0.0,0.0,0.0,8.41070687704515e-07,1.7129904749493463e-07,2.6422523788149507e-11,8.41070687704515e-07,1.7129904749493463e-07,2.6422523788149507e-11
1.6400000000000012,9.699998609826048,-0.001295173983377591,-0.0002639745766147131,-0.00013023192109427615,0.0,0.0,0.007934514524400187,0.0,0.0,0.021634363748772985,0.0,0.0,0.0,8.448411835256765e-07,1.7206724422523367e-07,2.6614384196352033e-11,8.448411835256765e-07,1.7206724422523367e-07,2.6614384196352033e-11
1.6500000000000012,9.700748292127633,-0.001294517489951257,-0.00026385453200586926,-0.00013024081146879364,0.0,0.0,0.008153050577824922,0.0,0.0,0.022073743791143168,0.0,0.0,0.0,8.484625331221971e-07,1.7280514921638105e-07,2.6800884690819317e-11,8.484625331221971e-07,1.7280514921638105e-07,2.6800884690819317e-11
1.6600000000000013,9.701498444623263,-0.0012938646174086464,-0.00026373526532282596,-0.00013024972922160032,0.0,0.0,0.008376007351557805,0.0,0.0,0.022518509209461295,0.0,0.0,0.0,8.519333085643507e-07,1.7351247200586728e-07,2.698193122274418e-11,8.519333085643507e-07,1.7351247200586728e-07,2.698193122274418e-11
1.6700000000000013,9.7022489152419,-0.001293215387814453,-0.00026361677762748643,-0.00013025867217239718,0.0,0.0,0.00860343874010455,0.0,0.0,0.02296866803031719,0.0,0.0,0.0,8.552521332056794e-07,1.741889324802311e-07,2.7157432448495765e-11,8.552521332056794e-07,1.741889324802311e-07,2.7157432448495765e-11
1.6800000000000013,9.702999554190635,-0.0012925698226515722,-0.0002634990699130187,-0.0001302676381729421,0.0,0.0,0.008835398714551893,0.0,0.0,0.023424227542813095,0.0,0.0,0.0,8.584176818456479e-07,1.7483426090782948e-07,2.7327299766356635e-11,8.584176818456479e-07,1.7483426090782948e-07,2.7327299766356635e-11
1.6900000000000013,9.703750213919283,-0.001291927942822396,-0.00026338214310344857,-0.000130276625106719,0.0,0.0,0.00907194131517757,0.0,0.0,0.023885194295555776,0.0,0.0,0.0,8.614286808710243e-07,1.7544819796735787e-07,2.7491447351064314e-11,8.614286808710243e-07,1.7544819796735787e-07,2.7491447351064314e-11
1.7000000000000013,9.704500749085346,-0.0012912897686505034,-0.00026326599805334857,-0.0001302856308883848,0.0,0.0,0.009313120644030806,0.0,0.0,0.024351574093765607,0.0,0.0,0.0,8.642839083762723e-07,1.7603049477217637e-07,2.7649792186164945e-11,8.642839083762723e-07,1.7603049477217637e-07,2.7649792186164945e-11
1.7100000000000013,9.705251016519426,-0.001290655319882865,-0.0002631506355476441,-0.00013029465346349193,0.0,0.0,0.00955899085748451,0.0,0.0,0.024823371996502672,0.0,0.0,0.0,8.669821942632373e-07,1.7658091289050046e-07,2.78022540941883e-11,8.669821942632373e-07,1.7658091289050046e-07,2.78022540941883e-11
1.7200000000000013,9.706000875191007,-0.0012900246156922848,-0.0002630360563014153,-0.0001303036908079927,0.0,0.0,0.009809606158760252,0.0,0.0,0.02530059231400996,0.0,0.0,0.0,8.69522420320407e-07,1.7709922436151057e-07,2.794875576465469e-11,8.69522420320407e-07,1.7709922436151057e-07,2.794875576465469e-11
1.7300000000000013,9.706750186174705,-0.0012893976746801159,-0.00026292226095981345,-0.00013031274092789493,0.0,0.0,0.010065020790427318,0.0,0.0,0.02578323860517341,0.0,0.0,0.0,8.71903520282032e-07,1.7758521170744034e-07,2.8089222779926027e-11,8.71903520282032e-07,1.7758521170744034e-07,2.8089222779926027e-11
1.7400000000000013,9.707498812616894,-0.0012887745148791171,-0.0002628092500980098,-0.0001303218018587711,0.0,0.0,0.010325289026876938,0.0,0.0,0.026271313675099134,0.0,0.0,0.0,8.741244798674085e-07,1.7803866794170154e-07,2.8223583638914926e-11,8.741244798674085e-07,1.7803866794170154e-07,2.8223583638914926e-11
1.7500000000000013,9.708246619702804,-0.0012881551537565073,-0.00026269702422115297,-0.0001303308716653954,0.0,0.0,0.01059046516677283,0.0,0.0,0.02676481957280756,0.0,0.0,0.0,8.761843368006097e-07,1.7845939657310657e-07,2.835176977866719e-11,8.761843368006097e-07,1.7845939657310657e-07,2.835176977866719e-11
1.7600000000000013,9.708993474624034,-0.0012875396082170129,-0.00026258558376436266,-0.00013033994844131514,0.0,0.0,0.010860603525479339,0.0,0.0,0.02726375758904457,0.0,0.0,0.0,8.780821808109619e-07,1.7884721160624452e-07,2.847371559383373e-11,8.780821808109619e-07,1.7884721160624452e-07,2.847371559383373e-11
1.7700000000000014,9.709739246546496,-0.0012869278946060101,-0.0002624749290927598,-0.00013034903030846595,0.0,0.0,0.011135758427468185,0.0,0.0,0.02776812825420978,0.0,0.0,0.0,8.798171536145675e-07,1.79201937538075e-07,2.8589358454050472e-11,8.798171536145675e-07,1.79201937538075e-07,2.8589358454050472e-11
1.7800000000000014,9.710483806578821,-0.0012863200287126805,-0.00026236506050142285,-0.00013035811541668458,0.0,0.0,0.011415984198705193,0.0,0.0,0.02827793133640165,0.0,0.0,0.0,8.813884488771804e-07,1.795234093507975e-07,2.869863871924505e-11,8.813884488771804e-07,1.795234093507975e-07,2.869863871924505e-11
1.7900000000000014,9.71122702774122,-0.0012857160257731665,-0.0002622559782154472,-0.0001303672019434132,0.0,0.0,0.011701335159017938,0.0,0.0,0.02879316583957972,0.0,0.0,0.0,8.827953121587313e-07,1.798114725010589e-07,2.880149975289104e-11,8.827953121587313e-07,1.798114725010589e-07,2.880149975289104e-11
1.8000000000000014,9.711968784934761,-0.0012851159004736452,-0.0002621476823899598,-0.00013037628809316776,0.0,0.0,0.011991865614445684,0.0,0.0,0.029313830001843892,0.0,0.0,0.0,8.840370408398132e-07,1.8006598290555962e-07,2.8897887933231358e-11,8.840370408398132e-07,1.8006598290555962e-07,2.8897887933231358e-11
1.8100000000000014,9.712708954911141,-0.0012845196669533957,-0.000262040173110116,-0.0001303853720972685,0.0,0.0,0.012287629849572664,0.0,0.0,0.029839921293830562,0.0,0.0,0.0,8.851129840304368e-07,1.8028680692312175e-07,2.8987752662493944e-11,8.851129840304368e-07,1.8028680692312175e-07,2.8987752662493944e-11
1.8200000000000014,9.713447416242893,-0.0012839273388078486,-0.000261933450391127,-0.0001303944522133262,0.0,0.0,0.012588682119845917,0.0,0.0,0.030371436417226,0.0,0.0,0.0,8.860225424613674e-07,1.8047382133328009e-07,2.9071046374123596e-11,8.860225424613674e-07,1.8047382133328009e-07,2.9071046374123596e-11
1.8300000000000014,9.714184049294072,-0.0012833389290915016,-0.0002618275141782656,-0.000130403526724915,0.0,0.0,0.012895076643878832,0.0,0.0,0.030908371303396513,0.0,0.0,0.0,8.867651683583575e-07,1.8062691331146065e-07,2.914772453805546e-11,8.867651683583575e-07,1.8062691331146065e-07,2.914772453805546e-11
1.8400000000000014,9.714918736191366,-0.0012827544503207907,-0.000261722364346844,-0.00013041259394116938,0.0,0.0,0.013206867595741602,0.0,0.0,0.03145072111213577,0.0,0.0,0.0,8.87340365299576e-07,1.8074598040080625e-07,2.921774566405588e-11,8.87340365299576e-07,1.8074598040080625e-07,2.921774566405588e-11
1.8500000000000014,9.71565136079574,-0.0012821739144769427,-0.00026161800070224406,-0.00013042165219631464,0.0,0.0,0.013524109097239704,0.0,0.0,0.031998480230529,0.0,0.0,0.0,8.877476880565752e-07,1.8083093048071666e-07,2.9281071303158495e-11,8.877476880565752e-07,1.8083093048071666e-07,2.9281071303158495e-11
1.8600000000000014,9.71638180867448,-0.001281597333008699,-0.0002615144229799067,-0.00013043069984943292,0.0,0.0,0.013846855210181627,0.0,0.0,0.032551642271934515,0.0,0.0,0.0,8.879867424190939e-07,1.808816817321652e-07,2.933766604722364e-11,8.879867424190939e-07,1.808816817321652e-07,2.933766604722364e-11
1.8700000000000014,9.717109967073743,-0.0012810247168350017,-0.0002614116308452776,-0.0001304397352839403,0.0,0.0,0.014175159928637023,0.0,0.0,0.033110200075081704,0.0,0.0,0.0,8.880571850040257e-07,1.8089816259985525e-07,2.938749752664999e-11,8.880571850040257e-07,1.8089816259985525e-07,2.938749752664999e-11
1.8800000000000014,9.717835724891573,-0.0012804560763476664,-0.00026130962389380347,-0.00013044875690729923,0.0,0.0,0.01450907717118635,0.0,0.0,0.03367414570328667,0.0,0.0,0.0,8.879587230488601e-07,1.8088031175127974e-07,2.9430536406268505e-11,8.879587230488601e-07,1.8088031175127974e-07,2.9430536406268505e-11
1.8900000000000015,9.718558972651403,-0.0012798914214139263,-0.0002612084016509327,-0.00013045776315056225,0.0,0.0,0.014848660773163361,0.0,0.0,0.034243470443784285,0.0,0.0,0.0,8.876911141899435e-07,1.808280780327525e-07,2.9466756379450305e-11,8.876911141899435e-07,1.808280780327525e-07,2.9466756379450305e-11
1.9000000000000015,9.719279602475975,-0.0012793307613789893,-0.0002611079635720972,-0.00013046675246812452,0.0,0.0,0.015193964478891372,0.0,0.0,0.034818164807177844,0.0,0.0,0.0,8.872541662258531e-07,1.807414204224705e-07,2.949613416045922e-11,8.872541662258531e-07,1.807414204224705e-07,2.949613416045922e-11
1.9100000000000015,9.719997508061827,-0.0012787741050685163,-0.0002610083090426368,-0.00013047572333722309,0.0,0.0,0.01554504193391474,0.0,0.0,0.03539821852700511,0.0,0.0,0.0,8.86647736866236e-07,1.8062030798067665e-07,2.951864947508236e-11,8.86647736866236e-07,1.8062030798067665e-07,2.951864947508236e-11
1.9200000000000015,9.720712584654157,-0.0012782214607910828,-0.00026090943737783467,-0.0001304846742576758,0.0,0.0,0.015901946677226508,0.0,0.0,0.035983620559421906,0.0,0.0,0.0,8.858717334664105e-07,1.8046471979698395e-07,2.95342850495712e-11,8.858717334664105e-07,1.8046471979698395e-07,2.95342850495712e-11
