T,input_acc,W1,W2,W3,Px,Py,Pz,Vx,Vy,Vz,Roll,Pitch,Yaw,R_rate,P_rate,Y_rate,Wb1,Wb2,Wb3
0,0.0,0.0,0.0,0.0,0.0,0.0,1.0,0.0,0.0,0.0,0.0,0.0,0.0,0.0,0.0,0.0,0.0,0.0,0.0
0.001,19.801000000000002,-9.093883565683644,4.161884512307971,-2.002,0.0,0.0,1.0,-1.0,0.0,1.0,-0.9092974268256817,0.4161468365471424,0.0,0.0,0.0,0.0,0.0,0.0,0.0
0.002,19.73589337156239,-9.094792863110468,4.162300659144519,-2.004,0.0,0.0,1.0,-1.0,0.0,0.9999933966015548,-0.9092974268256817,0.4161468365471424,0.0,0.0,0.0,0.0,0.0,0.0,0.0
0.003,19.66668091827181,-9.052753028799144,4.223658753435796,-2.0080396097346185,0.0,0.0,1.0,-0.9999999778284767,-2.125185521865067e-10,0.9999797869304402,-0.9063100844936363,0.42256081674497203,0.0,0.0,0.0,0.0,0.0,0.0,0.0
0.004,19.59376179459921,-8.997341962675247,4.288144821009718,-2.007822108805322,0.0,0.0,1.0,-0.9999998925548391,3.712900822926926e-09,0.9999588084274308,-0.9030769832099638,0.42927987087244707,0.0,0.0,0.0,0.0,0.0,0.0,0.0
0.005,19.51758301599247,-8.932532340938057,4.349842605681784,-2.0031177714883617,0.0,0.0,1.0,-0.9999996860804421,2.077753640495742e-08,0.9999301435848731,-0.8998552946604167,0.4357142585361882,0.0,0.0,0.0,0.0,0.0,0.0,0.0
0.006,19.43920487444997,-8.859675773882444,4.407853796470727,-1.9942522848434812,0.0,0.0,1.0,-0.9999992853211946,6.410111626178937e-08,0.9998935811574732,-0.8966650242591853,0.4418020478468123,0.0,0.0,0.0,0.0,0.0,0.0,0.0
0.007,19.35929334339433,-8.781970955333483,4.457493380971942,-1.9813046260522862,0.0,0.0,1.0,-0.9999986042241542,1.4974613250648682e-07,0.9998489766570205,-0.8937071772661238,0.44712746373672596,0.0,0.0,0.0,0.0,0.0,0.0,0.0
0.008,19.277780435108802,-8.702027229606848,4.495065454944052,-1.9645559034305657,0.0,0.0,1.0,-0.99999754438776,2.9526227375260074e-07,0.9997961789635843,-0.8911360439754528,0.451390204634669,0.0,0.0,0.0,0.0,0.0,0.0,0.0
0.009000000000000001,19.19480792552745,-8.620147474681666,4.521088677480076,-1.9446123971212725,0.0,0.0,1.0,-0.9999959963028654,5.184016496986589e-07,0.9997350512861299,-0.8889053218410292,0.4546928750497124,0.0,0.0,0.0,0.0,0.0,0.0,0.0
0.010000000000000002,19.110472904962567,-8.536851501732077,4.535530149906267,-1.9219615080165404,0.0,0.0,1.0,-0.9999938401347681,8.362305361159963e-07,0.9996654666831357,-0.8870041564184248,0.45705989517902745,0.0,0.0,0.0,0.0,0.0,0.0,0.0
0.011000000000000003,19.024873590059592,-8.452466362807634,4.538585794266263,-1.897057028527506,0.0,0.0,1.0,-0.9999909464786777,1.264467772596936e-06,0.9995873081642911,-0.885414772816777,0.4585235774190306,0.0,0.0,0.0,0.0,0.0,0.0,0.0
0.012000000000000004,18.938101855633725,-8.36723069048461,4.530502133531899,-1.8703127914364694,0.0,0.0,1.0,-0.9999871770162747,1.8170097079343895e-06,0.9995004680460872,-0.8841199703745395,0.45910992170502163,0.0,0.0,0.0,0.0,0.0,0.0,0.0
0.013000000000000005,18.850245122052883,-8.281300169667304,4.5115778440032415,-1.8421107628267503,0.0,0.0,1.0,-0.9999823851142595,2.505590122739988e-06,0.9994048474966447,-0.8831017248175071,0.4588419323419311,0.0,0.0,0.0,0.0,0.0,0.0,0.0
0.014000000000000005,18.76138652367457,-8.194765205512585,4.482142191005161,-1.8128058077068863,0.0,0.0,1.0,-0.9999764163729192,3.3395402953540396e-06,0.9993003560978675,-0.8823413882358182,0.45773970079504983,0.0,0.0,0.0,0.0,0.0,0.0,0.0
0.015000000000000006,18.671975666656536,-8.107687194441464,4.442553157413503,-1.7827295518828232,0.0,0.0,1.0,-0.9999691117756104,4.325321709522822e-06,0.9991869484431138,-0.881822104240422,0.45582188963017894,0.0,0.0,0.0,0.0,0.0,0.0,0.0
0.016000000000000007,18.58347454960124,-8.01919841632404,4.395416726933193,-1.7523621184087232,0.0,0.0,1.0,-0.999960317584873,5.465656748468452e-06,0.9990647252157323,-0.8814199740628893,0.45333258562795303,0.0,0.0,0.0,0.0,0.0,0.0,0.0
0.017000000000000008,18.495890602186435,-7.926386870543523,4.348328027508275,-1.7225230748618046,0.0,0.0,1.0,-0.9999498781436307,6.761185444030447e-06,0.9989337877314632,-0.8807473716208466,0.4510173700407491,0.0,0.0,0.0,0.0,0.0,0.0,0.0
0.01800000000000001,18.409230190430932,-7.831808313346857,4.298304971895067,-1.6932704119639523,0.0,0.0,1.0,-0.9999376373236162,8.210996692850695e-06,0.9987942378314847,-0.8799953663669122,0.4485033822885644,0.0,0.0,0.0,0.0,0.0,0.0,0.0
0.01900000000000001,18.32349922511291,-7.7350402667077125,4.247416660505363,-1.6648901841877461,0.0,0.0,1.0,-0.9999234395953233,9.812956913894342e-06,0.9986461778363513,-0.8790688832509145,0.44597721268626367,0.0,0.0,0.0,0.0,0.0,0.0,0.0
0.02000000000000001,18.238702708610756,-7.6369319397358515,4.19510489649176,-1.6374772272773173,0.0,0.0,1.0,-0.9999071308090967,1.156399329910783e-05,0.9984897104547165,-0.8780159072114546,0.4433473546883192,0.0,0.0,0.0,0.0,0.0,0.0,0.0
0.02100000000000001,18.154844879552872,-7.5375530923785155,4.142009135683934,-1.6111471755225952,0.0,0.0,1.0,-0.9998885587661149,1.3460290729321282e-05,0.9983249387066049,-0.8768141146899283,0.44066172922815544,0.0,0.0,0.0,0.0,0.0,0.0,0.0
0.022000000000000013,18.07192910826216,-7.437246372846023,4.088102739522287,-1.5859581897564818,0.0,0.0,1.0,-0.9998675736304466,1.5497450613457675e-05,0.9981519658363248,-0.8754766438308619,0.43789917430777814,0.0,0.0,0.0,0.0,0.0,0.0,0.0
0.023000000000000013,17.98995795049186,-7.3361356423775685,4.033630848097443,-1.5619580962073836,0.0,0.0,1.0,-0.9998440282243655,1.7670608286630334e-05,0.9979708952308444,-0.8739994538294125,0.43507327432638787,0.0,0.0,0.0,0.0,0.0,0.0,0.0
0.024000000000000014,17.908933143870335,-7.234390092946352,3.9786614338445316,-1.5391727994147408,0.0,0.0,1.0,-0.9998177782359237,1.9974525859226608e-05,0.9977818303379009,-0.8723873513644098,0.43218046112520475,0.0,0.0,0.0,0.0,0.0,0.0,0.0
0.025000000000000015,17.828855646571604,-7.132109563195352,3.9233169228779285,-1.5176179976566804,0.0,0.0,1.0,-0.999788682361613,2.24036634465637e-05,0.997584874588065,-0.8706409938994992,0.4292258116634535,0.0,0.0,0.0,0.0,0.0,0.0,0.0
0.026000000000000016,17.749725662526483,-7.029392915614171,3.86766772311905,-1.4972991006826852,0.0,0.0,1.0,-0.999756602400386,2.4952235688863748e-05,0.997380131319407,-0.8687632757211385,0.42621013087351334,0.0,0.0,0.0,0.0,0.0,0.0,0.0
0.027000000000000017,17.67154267720196,-6.926313020232997,3.811790481036764,-1.478214853705665,0.0,0.0,1.0,-0.9997214033115119,2.7614256356993983e-05,0.997167703705821,-0.8667561101216983,0.42313635479660155,0.0,0.0,0.0,0.0,0.0,0.0,0.0
0.028000000000000018,17.594305489397293,-6.822935609694647,3.7557437351933807,-1.4603584945698285,0.0,0.0,1.0,-0.9996829532453517,3.038357427348271e-05,0.9969476946886041,-0.8646219866293637,0.4200063354041164,0.0,0.0,0.0,0.0,0.0,0.0,0.0
0.02900000000000002,17.51801224481529,-6.719314818386035,3.6995831812781352,-1.4437192146097224,0.0,0.0,1.0,-0.9996411235539225,3.3253902387359946e-05,0.9967202069114631,-0.8623631680775661,0.4168224281879669,0.0,0.0,0.0,0.0,0.0,0.0,0.0
0.03000000000000002,17.442660467626087,-6.615498990242308,3.643356619286827,-1.4282830147633407,0.0,0.0,1.0,-0.9995957887863185,3.6218841653571285e-05,0.9964853426587469,-0.8599820647826059,0.41358669194035125,0.0,0.0,0.0,0.0,0.0,0.0,0.0
0.03100000000000002,17.368247091451448,-6.511530500026874,3.5871082941300667,-1.4140334230096274,0.0,0.0,1.0,-0.999546826672801,3.927190081461281e-05,0.9962432037968411,-0.8574810302616293,0.41030128215427203,0.0,0.0,0.0,0.0,0.0,0.0,0.0
0.03200000000000002,17.29476848884992,-6.407447843133427,3.530878154847588,-1.4009520103492639,0.0,0.0,1.0,-0.9994941181003933,4.240651297546776e-05,0.9959938917185719,-0.8548624478643908,0.40696825209287985,0.0,0.0,0.0,0.0,0.0,0.0,0.0
0.03300000000000002,17.222220499722777,-6.303286097396868,3.4747032701033955,-1.38901878464962,0.0,0.0,1.0,-0.9994375470821147,4.5616049609866594e-05,0.9957375072905101,-0.8521286764485968,0.40358965042589184,0.0,0.0,0.0,0.0,0.0,0.0,0.0
0.03400000000000002,17.15059845847956,-6.199077808968199,3.418617924806092,-1.378212494218643,0.0,0.0,1.0,-0.9993770007214541,4.889383249713187e-05,0.9954741508030452,-0.8492820684750736,0.4001674720184389,0.0,0.0,0.0,0.0,0.0,0.0,0.0
0.035000000000000024,17.07989722013972,-6.094853387449834,3.362654171808785,-1.3685108601658462,0.0,0.0,1.0,-0.9993123691732918,5.2233143961755676e-05,0.995203921923122,-0.8463249542263473,0.3967036823555349,0.0,0.0,0.0,0.0,0.0,0.0,0.0
0.036000000000000025,17.01011118539562,-5.990641533455512,3.3068420150267923,-1.3598907616914,0.0,0.0,1.0,-0.9992435456021856,5.5627235705164914e-05,0.9949269196495335,-0.8432596443883438,0.3932002055546097,0.0,0.0,0.0,0.0,0.0,0.0,0.0
0.037000000000000026,16.941234324739515,-5.8864694944078515,3.2512096654796645,-1.3523283829266046,0.0,0.0,1.0,-0.9991704261387169,5.9069336451782734e-05,0.9946432422706718,-0.8400884247733285,0.3896589306249352,0.0,0.0,0.0,0.0,0.0,0.0,0.0
0.03800000000000003,16.873260201710966,-5.782363289134756,3.195783680799609,-1.3457993338671703,0.0,0.0,1.0,-0.9990929098344319,6.255265858412083e-05,0.994352987324649,-0.8368135559060974,0.3860817086782665,0.0,0.0,0.0,0.0,0.0,0.0,0.0
0.03900000000000003,16.806181995332388,-5.6783478617082075,3.140589101961148,-1.3402787505338192,0.0,0.0,1.0,-0.9990108986157904,6.607040390484231e-05,0.9940562515617026,-0.8334372709629894,0.38247035463915163,0.0,0.0,0.0,0.0,0.0,0.0,0.0
0.04000000000000003,16.73999252178158,-5.574447206106439,3.0856495468743796,-1.335741380460821,0.0,0.0,1.0,-0.9989242972374408,6.961576863684561e-05,0.9937531309088062,-0.8299617751238105,0.3788266466940131,0.0,0.0,0.0,0.0,0.0,0.0,0.0
0.04100000000000003,16.67468425534669,-5.470684457650388,3.03098729228336,-1.3321616565644818,0.0,0.0,1.0,-0.9988330132350757,7.318194775185802e-05,0.9934437204364139,-0.8263892446935497,0.3751523268416228,0.0,0.0,0.0,0.0,0.0,0.0,0.0
0.04200000000000003,16.61024934869892,-5.36708196542903,2.9766233372341158,-1.3295137623681295,0.0,0.0,1.0,-0.998736956878065,7.676213870265156e-05,0.9931281143272654,-0.8227218267073881,0.3714491008766966,0.0,0.0,0.0,0.0,0.0,0.0,0.0
0.04300000000000003,16.546679652513163,-5.263661347801584,2.9225774579105237,-1.3277716903154073,0.0,0.0,1.0,-0.9986360411220294,8.034954462221905e-05,0.9928064058471859,-0.8189616385879323,0.3677186386455015,0.0,0.0,0.0,0.0,0.0,0.0,0.0
0.04400000000000003,16.48396673446094,-5.1604435367044985,2.8688682538663914,-1.3269092946526517,0.0,0.0,1.0,-0.9985301815614819,8.393737704426282e-05,0.9924786873178147,-0.8151107680072189,0.3639625741659351,0.0,0.0,0.0,0.0,0.0,0.0,0.0
0.04500000000000003,16.422101897595887,-5.057448812965149,2.8155131892275644,-1.3269003398301478,0.0,0.0,1.0,-0.9984192963826443,8.751885819237347e-05,0.9921450500912014,-0.8111712728305793,0.36018250582431327,0.0,0.0,0.0,0.0,0.0,0.0,0.0
0.046000000000000034,16.3610761981488,-4.954696835269384,2.7625286297631684,-1.3277185451753564,0.0,0.0,1.0,-0.9983033063165285,9.108722287982307e-05,0.9918055845262063,-0.8071451811660996,0.35637999655168845,0.0,0.0,0.0,0.0,0.0,0.0,0.0
0.047000000000000035,16.300880462746655,-4.852206664251001,2.709929877333404,-1.329337626352052,0.0,0.0,1.0,-0.9981821345923548,9.463572005755853e-05,0.9914603799666485,-0.8030344914789086,0.35255657403497836,0.0,0.0,0.0,0.0,0.0,0.0,0.0
0.048000000000000036,16.24150530506813,-4.749996783037168,2.6577312023966115,-1.3317313339990786,0.0,0.0,1.0,-0.9980557068913707,9.815761404448136e-05,0.9911095247211404,-0.7988411727676565,0.34871373094084546,0.0,0.0,0.0,0.0,0.0,0.0,0.0
0.04900000000000004,16.18294114194708,-4.648085115118491,2.6059458752681306,-1.3348734898302488,0.0,0.0,1.0,-0.9979239513011234,0.00010164618547121951,0.9907531060445539,-0.7945671647865153,0.34485292516726973,0.0,0.0,0.0,0.0,0.0,0.0,0.0
0.05000000000000004,16.12517820893415,-4.546489040246074,2.554586196524293,-1.3387380204108348,0.0,0.0,1.0,-0.9977867982702325,0.00010509473196618358,0.9903912101210609,-0.7902143783067033,0.3409755801180458,0.0,0.0,0.0,0.0,0.0,0.0,0.0
0.05100000000000004,16.068206575326535,-4.445225408845924,2.5036635268720753,-1.3432989887725242,0.0,0.0,1.0,-0.997644180563701,0.00010849656861063399,0.9900239220486946,-0.7857846954091549,0.33708308500409784,0.0,0.0,0.0,0.0,0.0,0.0,0.0
0.05200000000000004,16.012016158675287,-4.3443105553267785,2.4531883166777106,-1.348530623994681,0.0,0.0,1.0,-0.9974960332188004,0.00011184502818768508,0.9896513258253762,-0.781279969803374,0.3331767951702396,0.0,0.0,0.0,0.0,0.0,0.0,0.0
0.05300000000000004,15.956596738779691,-4.2437603105513,2.4031701352894097,-1.3544073488543102,0.0,0.0,1.0,-0.9973422935015589,0.0001151334612485712,0.9892735043363557,-0.7767020271675633,0.3292580324478386,0.0,0.0,0.0,0.0,0.0,0.0,0.0
0.05400000000000004,15.901937971178086,-4.143590013672181,2.3536177002292695,-1.3609038056305196,0.0,0.0,1.0,-0.9971829008638774,0.00011835523601805388,0.9888905393430139,-0.7720526655064487,0.32532808553229975,0.0,0.0,0.0,0.0,0.0,0.0,0.0
0.05500000000000004,15.848029400144647,-4.043814523478808,2.3045389062942636,-1.3679948801375637,0.0,0.0,1.0,-0.9970177969012973,0.00012150373815952392,0.9885025114729745,-0.767333655523621,0.32138821038455984,0.0,0.0,0.0,0.0,0.0,0.0,0.0
0.05600000000000004,15.794860471201886,-3.9444482293613117,2.255940854576754,-1.375655724052952,0.0,0.0,1.0,-0.9968469253114369,0.00012457237041912152,0.9881095002114786,-0.7625467410058483,0.317439630655263,0.0,0.0,0.0,0.0,0.0,0.0,0.0
0.057000000000000044,15.742420543158742,-3.8455050619687463,2.2078298813962256,-1.3838617756020128,0.0,0.0,1.0,-0.996670231853114,0.00012755455216704526,0.9877115838939691,-0.7576936392171532,0.3134835381302701,0.0,0.0,0.0,0.0,0.0,0.0,0.0
0.058000000000000045,15.690698899684364,-3.746998503616598,2.1602115871199676,-1.392588778657116,0.0,0.0,1.0,-0.9964876643061674,0.0001304437188531316,0.9873088396998418,-0.7527760413007986,0.3095210931959624,0.0,0.0,0.0,0.0,0.0,0.0,0.0
0.059000000000000045,15.63968476042793,-3.6489415984826463,2.113090864841643,-1.4018128003077766,0.0,0.0,1.0,-0.9962991724319891,0.00013323332139275184,0.9869013436473123,-0.7477956126875707,0.30555342532276064,0.0,0.0,0.0,0.0,0.0,0.0,0.0
0.060000000000000046,15.589367291695009,-3.551346962618412,2.0664719288809703,-1.4115102469566427,0.0,0.0,1.0,-0.9961047079347741,0.00013591682549808585,0.9864891705893561,-0.7427539935089548,0.30158163356522344,0.0,0.0,0.0,0.0,0.0,0.0,0.0
0.06100000000000005,15.539735616691157,-3.454226793794793,2.0203583430646512,-1.4216578789957248,0.0,0.0,1.0,-0.9959042244234984,0.00013848771096888686,0.9860723942106768,-0.7376527990139757,0.29760678707707905,0.0,0.0,0.0,0.0,0.0,0.0,0.0
0.06200000000000005,15.490778825343591,-3.3575928811941855,1.9747530487473335,-1.4322328241167963,0.0,0.0,1.0,-0.9956976773746254,0.00014093947095594357,0.9856510870256575,-0.7324936199886068,0.2936299256395461,0.0,0.0,0.0,0.0,0.0,0.0,0.0
0.06300000000000004,15.442485983711912,-3.261456614956846,1.9296583925314963,-1.443212589309662,0.0,0.0,1.0,-0.9954850240955488,0.00014326561120957463,0.9852253203772562,-0.7272780231767709,0.28965206020132567,0.0,0.0,0.0,0.0,0.0,0.0,0.0
0.06400000000000004,15.394846142998944,-3.1658289955860095,1.8850761536460843,-1.454575071601772,0.0,0.0,1.0,-0.9952662236887697,0.00014545964932465217,0.9847951644368017,-0.7220075517020597,0.2856741734286768,0.0,0.0,0.0,0.0,0.0,0.0,0.0
0.06500000000000004,15.347848348172779,-3.0707206432139547,1.8410075709454579,-1.4662985675924496,0.0,0.0,1.0,-0.9950412370168104,0.00014751511399284446,0.9843606882046511,-0.716683725489374,0.2816972202640355,0.0,0.0,0.0,0.0,0.0,0.0,0.0
0.06600000000000004,15.30148164621123,-2.9761418067296317,1.7974533694923405,-1.4783617818346826,0.0,0.0,1.0,-0.994810026667863,0.00014942554427199256,0.9839219595116706,-0.7113080416857687,0.27772212849168815,0.0,0.0,0.0,0.0,0.0,0.0,0.0
0.06700000000000005,15.255735093979755,-2.8821023727673927,1.7544137866909493,-1.4907438341170782,0.0,0.0,1.0,-0.9945725569221701,0.00015118448888178955,0.9834790450215017,-0.7058819750798434,0.27374979930906723,0.0,0.0,0.0,0.0,0.0,0.0,0.0
0.06800000000000005,15.210597765754072,-2.788611874555676,1.7118885979391179,-1.5034242656980754,0.0,0.0,1.0,-0.9943287937191339,0.0001527855055342149,0.983032010233576,-0.700406978519084,0.2697811079022983,0.0,0.0,0.0,0.0,0.0,0.0,0.0
0.06900000000000005,15.166058760398435,-2.695679500624026,1.6698771417710472,-1.5163830445439177,0.0,0.0,1.0,-0.9940787046251494,0.00015422216030648724,0.9825809194868441,-0.6948844833246001,0.26581690402469366,0.0,0.0,0.0,0.0,0.0,0.0,0.0
0.07000000000000005,15.122107208210611,-2.603314103366694,1.6283783444650388,-1.5296005696211985,0.0,0.0,1.0,-0.9938222588021548,0.00015548802706363913,0.9821258359641848,-0.689315899702761,0.26185801257694774,0.0,0.0,0.0,0.0,0.0,0.0,0.0
0.07100000000000005,15.078732277444384,-2.511524207460937,1.5873907440934483,-1.5430576742939648,0.0,0.0,1.0,-0.9935594269768939,0.000156576686937183,0.9816668216974601,-0.6837026171532663,0.25790523418786204,0.0,0.0,0.0,0.0,0.0,0.0,0.0
0.07200000000000005,15.035923180520346,-2.420318018138156,1.5469125139947753,-1.5567356288744505,0.0,0.0,1.0,-0.9932901814108808,0.00015748172786573118,0.9812039375731859,-0.6780460048732253,0.2539593457944903,0.0,0.0,0.0,0.0,0.0,0.0,0.0
0.07300000000000005,14.993669179935559,-2.3297034293061296,1.5069414856504832,-1.57061614237554,0.0,0.0,1.0,-0.9930144958710603,0.00015819674420285132,0.9807372433387868,-0.6723474121568573,0.2500211012206578,0.0,0.0,0.0,0.0,0.0,0.0,0.0
0.07400000000000005,14.951959593882517,-2.2396880315207732,1.4674751709517482,-1.5846813635119223,0.0,0.0,1.0,-0.9927323456011536,0.0001587153363968838,0.9802667976094048,-0.6666081687904557,0.246091231752881,0.0,0.0,0.0,0.0,0.0,0.0,0.0
0.07500000000000005,14.91078380158763,-2.1502791198059716,1.4285107838437474,-1.5989138809957881,0.0,0.0,1.0,-0.9924437072936806,0.00015903111074691589,0.9797926578752353,-0.6608295854422879,0.24217044671276985,0.0,0.0,0.0,0.0,0.0,0.0,0.0
0.07600000000000005,14.870131248379282,-2.0614837013202654,1.3900452613374887,-1.613296723171643,0.0,0.0,1.0,-0.9921485590626463,0.00015913767923860208,0.9793148805093593,-0.6550129540471281,0.23825943402506336,0.0,0.0,0.0,0.0,0.0,0.0,0.0
0.07700000000000005,14.829991450495278,-1.9733085028694033,1.3520752838813668,-1.6278133570335749,0.0,0.0,1.0,-0.9918468804168834,0.00015902865946303593,0.9788335207760495,-0.6491595481851532,0.23435886078050588,0.0,0.0,0.0,0.0,0.0,0.0,0.0
0.07800000000000006,14.790353999639294,-1.8857599782639372,1.314597295086746,-1.6424476866669357,0.0,0.0,1.0,-0.9915386522340363,0.0001586976746214196,0.9783486328395209,-0.6432706234549473,0.23046937379283342,0.0,0.0,0.0,0.0,0.0,0.0,0.0
0.07900000000000006,14.751208567295707,-1.7988443155212734,1.2776075208038455,-1.6571840511550597,0.0,0.0,1.0,-0.9912238567351768,0.00015813835361783924,0.977860269773104,-0.637347417840389,0.22659160014919558,0.0,0.0,0.0,0.0,0.0,0.0,0.0
0.08000000000000006,14.712544908811928,-1.7125674439118126,1.2411019875460043,-1.6720072219902162,0.0,0.0,1.0,-0.990902477460039,0.0001573443312420387,0.9773684835688152,-0.6313911520712141,0.2227261477533932,0.0,0.0,0.0,0.0,0.0,0.0,0.0
0.08100000000000006,14.674352867257117,-1.6269350408489922,1.205076540262167,-1.6869024000265858,0.0,0.0,1.0,-0.9905744992428596,0.00015630924844368846,0.9768733251473021,-0.6254030299770683,0.21887360586136712,0.0,0.0,0.0,0.0,0.0,0.0,0.0
0.08200000000000006,14.636622377065954,-1.5419525386232535,1.1695268594589712,-1.701855212011592,0.0,0.0,1.0,-0.9902399081888112,0.00015502675269927306,0.9763748443681425,-0.6193842388348796,0.21503454560842175,0.0,0.0,0.0,0.0,0.0,0.0,0.0
0.08300000000000006,14.599343467475805,-1.4576251309801456,1.1344484776753254,-1.7168517067304772,0.0,0.0,1.0,-0.9898986916510167,0.0001534904984723645,0.9758730900404752,-0.6133359497094033,0.2112095205277191,0.0,0.0,0.0,0.0,0.0,0.0,0.0
0.08400000000000006,14.562506265765428,-1.3739577795429454,1.0998367953136974,-1.7318783507975548,0.0,0.0,1.0,-0.989550838208129,0.00015169414776771412,0.9753681099339431,-0.607259317786804,0.207399067059624,0.0,0.0,0.0,0.0,0.0,0.0,0.0
0.08500000000000006,14.526101000303095,-1.290955220080371,1.0656870958335674,-1.7469220241261214,0.0,0.0,1.0,-0.9891963376424641,0.00014963137077927732,0.9748599507899282,-0.6011554827011596,0.2036037050515259,0.0,0.0,0.0,0.0,0.0,0.0,0.0
0.08600000000000006,14.490118003411691,-1.2086219686200645,1.0319945603136698,-1.7619700151075457,0.0,0.0,1.0,-0.9888351809186742,0.000147295846631987,0.9743486583330607,-0.5950255688537813,0.19982393824780828,0.0,0.0,0.0,0.0,0.0,0.0,0.0
0.08700000000000006,14.454547714058204,-1.1269623274087874,0.9987542813906132,-1.7770100155286528,0.0,0.0,1.0,-0.988467360162945,0.00014468126421680766,0.9738342772829853,-0.5888706857252676,0.19606025476967243,0.0,0.0,0.0,0.0,0.0,0.0,0.0
0.08800000000000006,14.41938068037463,-1.0459803907202554,0.9659612765824611,-1.7920301152550766,0.0,0.0,1.0,-0.9880928686427056,0.00014178132311833805,0.9733168513663648,-0.5826919281802099,0.192313127584566,0.0,0.0,0.0,0.0,0.0,0.0,0.0
0.08900000000000007,14.38460756201714,-0.9656800505118583,0.9336105010066384,-1.8070187967068487,0.0,0.0,1.0,-0.9877117007468352,0.0001385897346339785,0.9727964233291071,-0.5764903767644971,0.18858301496500013,0.0,0.0,0.0,0.0,0.0,0.0,0.0
0.09000000000000007,14.350219132370114,-0.8860650019314584,0.9016968595023095,-1.8219649291511655,0.0,0.0,1.0,-0.9873238519663539,0.00013510022288344594,0.9722730349487995,-0.5702670979951618,0.18487036093657444,0.0,0.0,0.0,0.0,0.0,0.0,0.0
0.09100000000000007,14.316206280601325,-0.8071387486757294,0.8702152181680128,-1.8368577628358593,0.0,0.0,1.0,-0.9869293188755827,0.00013130652600719866,0.971746727047334,-0.5640231446427361,0.18117559571506303,0.0,0.0,0.0,0.0,0.0,0.0,0.0
0.09200000000000007,14.282560013574365,-0.728904608201525,0.839160415325923,-1.8516869229858375,0.0,0.0,1.0,-0.9865280991137598,0.00012720239745212805,0.9712175395037098,-0.5577595560060885,0.1774991361324431,0.0,0.0,0.0,0.0,0.0,0.0,0.0
0.09300000000000007,14.249271457624157,-0.651365716791872,0.8085272719246273,-1.866442403683431,0.0,0.0,1.0,-0.9861201913670982,0.0001227816073426817,0.9706855112669999,-0.5514773581797252,0.1738413860517807,0.0,0.0,0.0,0.0,0.0,0.0,0.0
0.09400000000000007,14.216331860201114,-0.5745250344783512,0.7783106013927076,-1.881114561652356,0.0,0.0,1.0,-0.985705595351271,0.00011803794393540397,0.9701506803694668,-0.5451775643135522,0.17020273677090983,0.0,0.0,0.0,0.0,0.0,0.0,0.0
0.09500000000000007,14.183732591389347,-0.49838534982161775,0.7485052189558292,-1.8956941099637588,0.0,0.0,1.0,-0.9852843117943122,0.00011296521515471337,0.9696130839398168,-0.5388611748650998,0.16658356741487318,0.0,0.0,0.0,0.0,0.0,0.0,0.0
0.09600000000000007,14.151465145304009,-0.422949284552,0.7191059504303065,-1.91017211168165,0.0,0.0,1.0,-0.9848563424199166,0.0001075572502075821,0.9690727582165781,-0.5325291778442244,0.1629842453171117,0.0,0.0,0.0,0.0,0.0,0.0,0.0
0.09700000000000007,14.119521141372697,-0.3482192980721141,0.6901076405063847,-1.9245399734638555,0.0,0.0,1.0,-0.9844216899311278,0.00010180790127464019,0.9685297385615929,-0.5261825490503088,0.15940512638941504,0.0,0.0,0.0,0.0,0.0,0.0,0.0
0.09800000000000007,14.087892325505624,-0.2741976918235575,0.661505160534664,-1.9387894391335425,0.0,0.0,1.0,-0.9839803579943996,9.571104527509545e-05,0.9679840594736118,-0.5198222523019912,0.15584655548066514,0.0,0.0,0.0,0.0,0.0,0.0,0.0
0.09900000000000007,14.05657057115899,-0.20088661351978826,0.6332934158292453,-1.9529125832352676,0.0,0.0,1.0,-0.9835323512240186,8.926058570273927e-05,0.9674357546019793,-0.5134492396594615,0.152308866724425,0.0,0.0,0.0,0.0,0.0,0.0,0.0
0.10000000000000007,14.02554788029586,-0.1282880612473602,0.6054673525012682,-1.9669018045884983,0.0,0.0,1.0,-0.9830776751668733,8.245045453019831e-05,0.9668848567604005,-0.5070644516393706,0.14879238387544239,0.0,0.0,0.0,0.0,0.0,0.0,0.0
0.10100000000000008,13.994816384248612,-0.05640388743776453,0.5780219638365713,-1.9807498198505464,0.0,0.0,1.0,-0.9826163362875591,7.527461417849074e-05,0.9663313979407788,-0.5006688174224071,0.14529742063515455,0.0,0.0,0.0,0.0,0.0,0.0,0.0
0.10200000000000008,13.964368344486822,0.014764197287853387,0.5509522962312374,-1.9944496570999053,0.0,0.0,1.0,-0.9821483419538045,6.772705954885528e-05,0.9657754093271151,-0.49426325505360036,0.14182428096629715,0.0,0.0,0.0,0.0,0.0,0.0,0.0
0.10300000000000008,13.93419615329428,0.08521462039875893,0.5242534546987461,-2.007994649450074,0.0,0.0,1.0,-0.9816737004222076,5.980182011373837e-05,0.9652169213094595,-0.4878486716354182,0.13837325939673223,0.0,0.0,0.0,0.0,0.0,0.0,0.0
0.10400000000000008,13.90429233435869,0.15494594385709404,0.49792060796243365,-2.0213784287030747,0.0,0.0,1.0,-0.9811924208242694,5.1492962063752097e-05,0.9646559634979065,-0.48142596351373174,0.13494464131262568,0.0,0.0,0.0,0.0,0.0,0.0,0.0
0.10500000000000008,13.874649543277325,0.22395686064031728,0.4719489931468614,-2.0345949190510315,0.0,0.0,1.0,-0.9807045131527132,4.279459050734988e-05,0.9640925647366264,-0.474996016456729,0.13153870324111455,0.0,0.0,0.0,0.0,0.0,0.0,0.0
0.10600000000000008,13.845260567981855,0.2922461913811819,0.44633392008160855,-2.0476383308334025,0.0,0.0,1.0,-0.980209988248077,3.370085171991047e-05,0.963526753117922,-0.4685597058268594,0.12815571312261703,0.0,0.0,0.0,0.0,0.0,0.0,0.0
0.10700000000000008,13.816118329085377,0.35981288112274046,0.42107077523086794,-2.060503154356664,0.0,0.0,1.0,-0.9797088577855685,2.4205935438871155e-05,0.9629585559963062,-0.46211789674590376,0.12479593057294716,0.0,0.0,0.0,0.0,0.0,0.0,0.0
0.10800000000000008,13.78721588015446,0.42665599618586963,0.39615502526207713,-2.073184153782566,0.0,0.0,1.0,-0.9792011342621704,1.4304077201509473e-05,0.9623880000025904,-0.45567144425326406,0.12145960713540511,0.0,0.0,0.0,0.0,0.0,0.0,0.0
0.10900000000000008,13.758546407908947,0.4927747211467836,0.371582220266648,-2.08567636109036,0.0,0.0,1.0,-0.9786868309839858,3.989560721937882e-06,0.9618151110579779,-0.4492211934575743,0.11814698652302222,0.0,0.0,0.0,0.0,0.0,0.0,0.0
0.11000000000000008,13.730103232352107,0.5581683559219464,0.34734799664569127,-2.0979750701177786,0.0,0.0,1.0,-0.9781659620538125,-6.743279696151813e-06,0.9612399143881551,-0.44276797968174014,0.11485830485114809,0.0,0.0,0.0,0.0,0.0,0.0,0.0
0.11100000000000008,13.701879806833533,0.6228363129578263,0.32344807967340194,-2.110075830684916,0.0,0.0,1.0,-0.9776385423589355,-1.7900056714478947e-05,0.9606624345373729,-0.4363126286015168,0.11159379086057142,0.0,0.0,0.0,0.0,0.0,0.0,0.0
0.11200000000000009,13.673869718047138,0.6867781145228865,0.2998782857506064,-2.121974442804591,0.0,0.0,1.0,-0.9771045875591283,-2.9486327486398834e-05,0.9600826953825129,-0.42985595637774027,0.10835366613137463,0.0,0.0,0.0,0.0,0.0,0.0,0.0
0.11300000000000009,13.646066685966414,0.7499933900991962,0.276634524360707,-2.1336669509822244,0.0,0.0,1.0,-0.976564114074851,-4.150759115787028e-05,0.9595007201471317,-0.42339876978233215,0.10513814528772532,0.0,0.0,0.0,0.0,0.0,0.0,0.0
0.11400000000000009,13.618464563719067,0.8124818738710569,0.2537127997400632,-2.1451496386077507,0.0,0.0,1.0,-0.9760171390756383,-5.3969286346677094e-05,0.9589165314154774,-0.41694186631820007,0.10194743619381272,0.0,0.0,0.0,0.0,0.0,0.0,0.0
0.11500000000000009,13.591057337402958,0.8742434023080095,0.23110921227459325,-2.156419022441608,0.0,0.0,1.0,-0.9754636804686655,-6.687678860341216e-05,0.9583301511464724,-0.4104860343331606,0.09878174014114141,0.0,0.0,0.0,0.0,0.0,0.0,0.0
0.11600000000000009,13.563839125845229,0.9352779118395989,0.20881995963414668,-2.1674718471963965,0.0,0.0,1.0,-0.9749037568874848,-8.023540785772469e-05,0.9577416006876561,-0.4040320531280154,0.09564125202739693,0.0,0.0,0.0,0.0,0.0,0.0,0.0
0.11700000000000009,13.536804180306419,0.995585436619268,0.18684133765594524,-2.178305080215363,0.0,0.0,1.0,-0.9743373876809217,-9.405038585331793e-05,0.9571509007890844,-0.39758069305891275,0.09252616052710122,0.0,0.0,0.0,0.0,0.0,0.0,0.0
0.11800000000000009,13.509946884131178,1.0551661063747584,0.1651697409881473,-2.1889159062485177,0.0,0.0,1.0,-0.9737645929021246,-0.00010832689357516623,0.956558071617177,-0.39113271563413177,0.0894366482542781,0.0,0.0,0.0,0.0,0.0,0.0,0.0
0.11900000000000009,13.483261752347243,1.1140201443423743,0.14380166350431822,-2.199301722326763,0.0,0.0,1.0,-0.9731853932977572,-0.00012307002867239735,0.9559631327685115,-0.38468887360542847,0.08637289191734927,0.0,0.0,0.0,0.0,0.0,0.0,0.0
0.12000000000000009,13.45674343121413,1.1721478652825281,0.12273369849936255,-2.209460132734132,0.0,0.0,1.0,-0.9725998102973278,-0.00013828481288025824,0.9553661032835559,-0.378249911054084,0.08333506246648452,0.0,0.0,0.0,0.0,0.0,0.0,0.0
0.1210000000000001,13.430386697723032,1.2295496735739277,0.10196253867719285,-2.2193889440779,0.0,0.0,1.0,-0.9720078660026453,-0.00015397618944454995,0.9547670016603365,-0.37181656347180086,0.08032332523362881,0.0,0.0,0.0,0.0,0.0,0.0,0.0
0.1220000000000001,13.404186459049232,1.2862260613838274,0.0814849759401649,-2.229086160456034,0.0,0.0,1.0,-0.9714095831773969,-0.00017014902055188143,0.9541658458680365,-0.3653895578365919,0.07733784006543028,0.0,0.0,0.0,0.0,0.0,0.0,0.0
0.1230000000000001,13.378137751958384,1.342177606911761,0.0612979009900686,-2.238549978721202,0.0,0.0,1.0,-0.9708049852368377,-0.00018680808476905075,0.9535626533605206,-0.35896961268381067,0.0743787614492932,0.0,0.0,0.0,0.0,0.0,0.0,0.0
0.1240000000000001,13.352235742167869,1.3974049727041695,0.04139830275017531,-2.2477787838403147,0.0,0.0,1.0,-0.9701940962375877,-0.00020395807449481826,0.9529574410897792,-0.35255743817247404,0.07144623863277885,0.0,0.0,0.0,0.0,0.0,0.0,0.0
0.12500000000000008,13.32647572366443,1.4519089040374022,0.021783267617642377,-2.2567711443483454,0.0,0.0,1.0,-0.9695769408675278,-0.00022160359342728766,0.9523502255192925,-0.3461537361470266,0.06854041573657758,0.0,0.0,0.0,0.0,0.0,0.0,0.0
0.12600000000000008,13.300853117979203,1.5056902273665334,0.0024499785552765108,-2.265525807894986,0.0,0.0,1.0,-0.9689535444357888,-0.00023974915405005883,0.9517410226373052,-0.33975920019470196,0.06566143186127375,0.0,0.0,0.0,0.0,0.0,0.0,0.0
0.12700000000000009,13.275363473421244,1.558749848837499,-0.016604285968548016,-2.274041696882519,0.0,0.0,1.0,-0.968323932862828,-0.00025839917514026143,0.9511298479700113,-0.33337451569863347,0.06280942118812392,0.0,0.0,0.0,0.0,0.0,0.0,0.0
0.12800000000000009,13.250002464270594,1.6110887528600712,-0.035382153183279974,-2.2823179041931123,0.0,0.0,1.0,-0.9676881326705855,-0.00027755797930151884,0.9505167165946437,-0.32700035988686965,0.059984513074068095,0.0,0.0,0.0,0.0,0.0,0.0,0.0
0.1290000000000001,13.224765889931874,1.6627080007391903,-0.05388615735458602,-2.2903536890036205,0.0,0.0,1.0,-0.9670461709727179,-0.00029722979052483037,0.9499016431524642,-0.32063740187745166,0.05718683214119104,0.0,0.0,0.0,0.0,0.0,0.0,0.0
0.1300000000000001,13.199649674049393,1.713608729362236,-0.07211874124967843,-2.2981484726858357,0.0,0.0,1.0,-0.9663980754649008,-0.00031741873178029524,0.9492846418616521,-0.31428630271970737,0.05441649836084926,0.0,0.0,0.0,0.0,0.0,0.0,0.0
0.1310000000000001,13.174649863584701,1.7637921499398181,-0.09008225772173861,-2.305701834790038,0.0,0.0,1.0,-0.9657438744151965,-0.0003381288226425328,0.9486657265300856,-0.3079477154319206,0.05167362713267695,0.0,0.0,0.0,0.0,0.0,0.0,0.0
0.1320000000000001,13.149762627857491,1.8132595467977253,-0.10777897140580861,-2.3130135091095894,0.0,0.0,1.0,-0.9650835966544828,-0.00035936397695258423,0.9480449105680138,-0.3016222850355318,0.04895832935868266,0.0,0.0,0.0,0.0,0.0,0.0,0.0
0.1330000000000001,13.124984257550738,1.8620122762176554,-0.12521106051876252,-2.32008337982425,0.0,0.0,1.0,-0.9644172715669367,-0.0003811280005190068,0.9474222070006146,-0.29531064858602896,0.04627071151264398,0.0,0.0,0.0,0.0,0.0,0.0,0.0
0.1340000000000001,13.100311163680939,1.910051765324455,-0.14238061875616936,-2.326911477719825,0.0,0.0,1.0,-0.9637449290805693,-0.00040342458886079665,0.9467976284804378,-0.28901343520068384,0.04361087570500739,0.0,0.0,0.0,0.0,0.0,0.0,0.0
0.1350000000000001,13.075739876534293,1.957379511017548,-0.15928965727907418,-2.333497976481706,0.0,0.0,1.0,-0.9630665996578092,-0.00042625732499469764,0.9461711872997264,-0.2827312660832931,0.04097891974349571,0.0,0.0,0.0,0.0,0.0,0.0,0.0
0.1360000000000001,13.051267044569656,2.0039970789443338,-0.17594010678393102,-2.3398431890598195,0.0,0.0,1.0,-0.9623823142861283,-0.0004496296772693744,0.9455428954026158,-0.2764647545460794,0.03837493718962344,0.0,0.0,0.0,0.0,0.0,0.0,0.0
0.1370000000000001,13.026889433289059,2.049906102513341,-0.19233381964912377,-2.3459475641024965,0.0,0.0,1.0,-0.9616921044687083,-0.0004735449972488447,0.9449127643972066,-0.2702145060289089,0.035799017411316775,0.0,0.0,0.0,0.0,0.0,0.0,0.0
0.1380000000000001,13.002603924076638,2.0951082819449676,-0.2084725721516989,-2.3518116824567343,0.0,0.0,1.0,-0.9609960022151434,-0.0004980065176474821,0.9442808055675084,-0.2639811181159805,0.0332512456318326,0.0,0.0,0.0,0.0,0.0,0.0,0.0
0.1390000000000001,12.978407513006708,2.139605383357669,-0.2243580667481364,-2.357436253732331,0.0,0.0,1.0,-0.9602940400321767,-0.0005230173503188155,0.9436470298852506,-0.25776518055014197,0.030731702975166565,0.0,0.0,0.0,0.0,0.0,0.0,0.0
0.1400000000000001,12.954297309621841,2.183399237887526,-0.2399919344131639,-2.3628221129273883,0.0,0.0,1.0,-0.9595862509144676,-0.000548580484300262,0.9430114480215597,-0.2515672752449846,0.028240466508137628,0.0,0.0,0.0,0.0,0.0,0.0,0.0
0.1410000000000001,12.93027053568165,2.226491740839115,-0.2553757370308062,-2.367970217112672,0.0,0.0,1.0,-0.9588726683353871,-0.0005746987839158433,0.942374070358497,-0.24538797629487083,0.025777609279332453,0.0,0.0,0.0,0.0,0.0,0.0,0.0
0.1420000000000001,12.906324523883134,2.2688848508656974,-0.2705109698320337,-2.3728816421723575,0.0,0.0,1.0,-0.9581533262378389,-0.0006013749869388425,0.9417349070004576,-0.2392278499830435,0.02334320035508965,0.0,0.0,0.0,0.0,0.0,0.0,0.0
0.1430000000000001,12.882456716553303,2.3105805891767717,-0.2853990638735644,-2.377557579598724,0.0,0.0,1.0,-0.9574282590251035,-0.0006286117028162701,0.941093967785425,-0.23308745478796639,0.020937304852700504,0.0,0.0,0.0,0.0,0.0,0.0,0.0
0.1440000000000001,12.858664664314915,2.3515810387710347,-0.3000413885525154,-2.3819993333383884,0.0,0.0,1.0,-0.956697501551705,-0.0006564114109569108,0.9404512622960806,-0.22696734138804558,0.018559983970998305,0.0,0.0,0.0,0.0,0.0,0.0,0.0
0.1450000000000001,12.834946024726051,2.391888343692923,-0.31443925415179685,-2.386208316687712,0.0,0.0,1.0,-0.955961089114296,-0.0006847764590846336,0.9398067998707651,-0.22086805266487403,0.016211295018505413,0.0,0.0,0.0,0.0,0.0,0.0,0.0
0.1460000000000001,12.811298560894365,2.4315047083108827,-0.3285939144112784,-2.390186049235093,0.0,0.0,1.0,-0.9552190574425626,-0.0007137090616585487,0.9391605896142896,-0.21479012370514572,0.013891291439302959,0.0,0.0,0.0,0.0,0.0,0.0,0.0
0.1470000000000001,12.787720140066773,2.4704323966155983,-0.34250656911992916,-2.3939341538478858,0.0,0.0,1.0,-0.9544714426901449,-0.0007432112983615038,0.9385126404085937,-0.2087340818013803,0.011600022836784057,0.0,0.0,0.0,0.0,0.0,0.0,0.0
0.1480000000000001,12.764208732195359,2.5086737315364522,-0.3561783667242885,-2.3974543537017636,0.0,0.0,1.0,-0.9537182814255737,-0.0007732851126583123,0.9378629609232484,-0.2027004464515968,0.00933753499544751,0.0,0.0,0.0,0.0,0.0,0.0,0.0
0.1490000000000001,12.74076240848035,2.5462310942745194,-0.36961040694876934,-2.4007484693504146,0.0,0.0,1.0,-0.9529596106232215,-0.0008039323104250128,0.9372115596258027,-0.19668972935807505,0.0071038699008852645,0.0,0.0,0.0,0.0,0.0,0.0,0.0
0.1500000000000001,12.71737933989092,2.5831069236504836,-0.3828037434234425,-2.4038184158335243,0.0,0.0,1.0,-0.9521954676542685,-0.0008351545586503605,0.9365584447919709,-0.19070243442533819,0.0048990657581127195,0.0,0.0,0.0,0.0,0.0,0.0,0.0
0.1510000000000001,12.694057795664657,2.6193037154658745,-0.395759386315108,-2.4066661998210908,0.0,0.0,1.0,-0.9514258902776807,-0.000866953384210657,0.935903624515658,-0.18473905775748886,0.002723157008386226,0.0,0.0,0.0,0.0,0.0,0.0,0.0
0.1520000000000001,12.670796141786534,2.65482402187611,-0.4084783049575913,-2.4092939167921705,0.0,0.0,1.0,-0.9506509166312008,-0.0008993301727189234,0.935247106718823,-0.17880008765502794,0.0005761743446494813,0.0,0.0,0.0,0.0,0.0,0.0,0.0
0.1530000000000001,12.64759283944819,2.6896704507738343,-0.42096143047734313,-2.4117037482462687,0.0,0.0,1.0,-0.9498705852223536,-0.0009322861674493318,0.9345888991611778,-0.1728860046112836,-0.001541855274255155,0.0,0.0,0.0,0.0,0.0,0.0,0.0
0.1540000000000001,12.624446443488388,2.7238456651811576,-0.43320965841055825,-2.4138979589456575,0.0,0.0,1.0,-0.9490849349194607,-0.0009658224683377051,0.9339290094497182,-0.16699728130857167,-0.003630908610477445,0.0,0.0,0.0,0.0,0.0,0.0,0.0
0.1550000000000001,12.601355600815484,2.7573523826493793,-0.445223851308176,-2.4158788941869855,0.0,0.0,1.0,-0.9482940049426708,-0.0009999400310588076,0.9332674450480887,-0.1611343826142114,-0.005690966135023828,0.0,0.0,0.0,0.0,0.0,0.0,0.0
0.1560000000000001,12.578319048812801,2.7901933746648964,-0.4570048413252312,-2.4176489771006575,0.0,0.0,1.0,-0.9474978348550005,-0.0010346396661810458,0.9326042132857761,-0.1552977655765105,-0.007722012016471436,0.0,0.0,0.0,0.0,0.0,0.0,0.0
0.1570000000000001,12.555335613727717,2.822371466059999,-0.46855343279118467,-2.41921070597653,0.0,0.0,1.0,-0.946696464553389,-0.001069922038399108,0.9319393213671333,-0.14948787942083638,-0.009724034110411405,0.0,0.0,0.0,0.0,0.0,0.0,0.0
0.1580000000000001,12.532404209045433,2.853889534427342,-0.47987040475796805,-2.4205666516145774,0.0,0.0,1.0,-0.9458899342597662,-0.0011057876658449746,0.9312727763802303,-0.14370516554588303,-0.011697023949505475,0.0,0.0,0.0,0.0,0.0,0.0,0.0
0.1590000000000001,12.509523833848245,2.8847505095369206,-0.4909565135226166,-2.421719454699265,0.0,0.0,1.0,-0.9450782845121349,-0.001142236919477639,0.9306045853055311,-0.13795005752024164,-0.013640976734044151,0.0,0.0,0.0,0.0,0.0,0.0,0.0
0.16000000000000011,12.48669357116124,2.914957372754411,-0.5018124951214794,-2.42267182319648,0.0,0.0,1.0,-0.9442615561556674,-0.0011792700225517828,0.929934755024397,-0.13222298107937908,-0.015555891322898672,0.0,0.0,0.0,0.0,0.0,0.0,0.0
0.16100000000000012,12.46391258628534,2.944513156459846,-0.5124390677931354,-2.4234265297719415,0.0,0.0,1.0,-0.9434397903338179,-0.001216887050165562,0.9292632923274129,-0.12652435412312432,-0.01744177022476326,0.0,0.0,0.0,0.0,0.0,0.0,0.0
0.16200000000000012,12.441180125118585,2.9734209434655576,-0.5228369344072349,-2.4239864092301158,0.0,0.0,1.0,-0.9426130284794518,-0.0012550879288875671,0.928590203922537,-0.12085458671376129,-0.019298619589588225,0.0,0.0,0.0,0.0,0.0,0.0,0.0
0.16300000000000012,12.418495512466595,3.0016838664324768,-0.533006784856648,-2.424354355972777,0.0,0.0,1.0,-0.9417813123059926,-0.0012938724364629282,0.9279154964430736,-0.11521408107481913,-0.02112644920010876,0.0,0.0,0.0,0.0,0.0,0.0,0.0
0.16400000000000012,12.395858150343155,3.0293051072838453,-0.5429492984103764,-2.4245333214764004,0.0,0.0,1.0,-0.9409446837985866,-0.001333240201598456,0.9272391764554666,-0.109603231590652,-0.02292527246337788,0.0,0.0,0.0,0.0,0.0,0.0,0.0
0.16500000000000012,12.373267516261818,3.0562878966154816,-0.5526651460248421,-2.4245263117877274,0.0,0.0,1.0,-0.9401031852052896,-0.0013731907038266144,0.926561250466914,-0.10402242480689278,-0.02469510640221695,0.0,0.0,0.0,0.0,0.0,0.0,0.0
0.16600000000000012,12.350723161519516,3.0826355131018124,-0.5621549926112456,-2.4243363850368764,0.0,0.0,1.0,-0.9392568590282729,-0.0014137232734480402,0.925881724932802,-0.09847203943186372,-0.02643597164649985,0.0,0.0,0.0,0.0,0.0,0.0,0.0
0.16700000000000012,12.32822470947312,3.108351282896884,-0.5714194992568344,-2.423966648967512,0.0,0.0,1.0,-0.9384057480150542,-0.0014548370915522409,0.9252006062639605,-0.09295244633902205,-0.028147892424192467,0.0,0.0,0.0,0.0,0.0,0.0,0.0
0.16800000000000012,12.305771853809867,3.133438579029676,-0.5804593253980127,-2.4234202584836386,0.0,0.0,1.0,-0.9375498951497512,-0.0014965311901160199,0.9245179008337359,-0.08746400857051503,-0.02983089655207201,0.0,0.0,0.0,0.0,0.0,0.0,0.0
0.16900000000000012,12.283364356812658,3.157900820793032,-0.5892751309433466,-2.4227004132126915,0.0,0.0,1.0,-0.9366893436443626,-0.0015388044521790982,0.9238336149848837,-0.08200708134191557,-0.031485015426054606,0.0,0.0,0.0,0.0,0.0,0.0,0.0
0.17000000000000012,12.261002047621163,3.1817414731256246,-0.597867578344632,-2.421810355084679,0.0,0.0,1.0,-0.9358241369300758,-0.0015816556120963243,0.9231477550362804,-0.07658201204820435,-0.03311028401106478,0.0,0.0,0.0,0.0,0.0,0.0,0.0
0.17100000000000012,12.2386848204897,3.2049640459863746,-0.6062373346142932,-2.4207533659272076,0.0,0.0,1.0,-0.9349543186486047,-0.0016250832558657884,0.9224603272894527,-0.07118914027106307,-0.03470674083038215,0.0,0.0,0.0,0.0,0.0,0.0,0.0
0.17200000000000013,12.216412633042843,3.2275720937208394,-0.614385073287501,-2.4195327650763105,0.0,0.0,1.0,-0.934079932643558,-0.0016690858215320811,0.9217713380349265,-0.06582879778753553,-0.036274427954406746,0.0,0.0,0.0,0.0,0.0,0.0,0.0
0.17300000000000013,12.194185504529745,3.2495692144190813,-0.6223114763275046,-2.4181519070030735,0.0,0.0,1.0,-0.9332010229518417,-0.0017136615996638691,0.9210807935583939,-0.060501308580113634,-0.037813390988786305,0.0,0.0,0.0,0.0,0.0,0.0,0.0
0.17400000000000013,12.172003514078106,3.2709590492646243,-0.6300172359727717,-2.4166141789561264,0.0,0.0,1.0,-0.9323176337950951,-0.0017588087339048856,0.9203887001466988,-0.055206988848298756,-0.03932367906185369,0.0,0.0,0.0,0.0,0.0,0.0,0.0
0.17500000000000013,12.14986679894877,3.2917452818741153,-0.637503056524649,-2.414922998620145,0.0,0.0,1.0,-0.9314298095711651,-0.001804525221597371,0.9196950640936429,-0.04994614702168594,-0.04080534481132558,0.0,0.0,0.0,0.0,0.0,0.0,0.0
0.17600000000000013,12.1277755527919,3.311931637627378,-0.644769656074355,-2.41308181179058,0.0,0.0,1.0,-0.9305375948456179,-0.001850808914476932,0.9189998917056089,-0.04471908377461402,-0.042258444370217904,0.0,0.0,0.0,0.0,0.0,0.0,0.0
0.17700000000000013,12.105730023905684,3.3315218829875737,-0.651817768168218,-2.411094090064887,0.0,0.0,1.0,-0.9296410343432934,-0.001897657519437722,0.9183031893070058,-0.03952609204242249,-0.04368303735193577,0.0,0.0,0.0,0.0,0.0,0.0,0.0
0.17800000000000013,12.083730513498516,3.350519824811232,-0.6586481434101872,-2.4089633285506076,0.0,0.0,1.0,-0.9287401729399004,-0.0019450685993667952,0.9176049632455333,-0.034367457039350104,-0.0450791868345008,0.0,0.0,0.0,0.0,0.0,0.0,0.0
0.17900000000000013,12.061777373955593,3.368929309647975,-0.6652615510007305,-2.406693043590705,0.0,0.0,1.0,-0.9278350556536584,-0.0019930395740464135,0.9169052198972677,-0.029243456278106938,-0.04644695934388046,0.0,0.0,0.0,0.0,0.0,0.0,0.0
0.18000000000000013,12.039871007110873,3.386754223029767,-0.6716587802113562,-2.4042867705066144,0.0,0.0,1.0,-0.9269257276369856,-0.0020415677211230495,0.9162039656715693,-0.024154359591149432,-0.04778642483638866,0.0,0.0,0.0,0.0,0.0,0.0,0.0
0.18100000000000013,12.018011862525302,3.403998488749589,-0.6778406417940654,-2.401748061359529,0.0,0.0,1.0,-0.9260122341682357,-0.0020906501771417564,0.9155012070158128,-0.019100429153682562,-0.04909765668012929,0.0,0.0,0.0,0.0,0.0,0.0,0.0
0.18200000000000013,11.996200435772243,3.4206660681294743,-0.6838079693251763,-2.399080482730485,0.0,0.0,1.0,-0.9250946206434875,-0.0021402839386445447,0.9147969504199416,-0.014081919508409667,-0.05038073163545795,0.0,0.0,0.0,0.0,0.0,0.0,0.0
0.18300000000000013,11.974437266730993,3.4367609592778603,-0.6895616204830255,-2.3962876135198603,0.0,0.0,1.0,-0.9241729325683851,-0.002190465863331341,0.914091202420845,-0.009099077592048224,-0.05163572983444027,0.0,0.0,0.0,0.0,0.0,0.0,0.0
0.18400000000000014,11.952722937889304,3.45228719633628,-0.6951024782591738,-2.3933730427669477,0.0,0.0,1.0,-0.9232472155500359,-0.0022411926712820733,0.9133839696065629,-0.004152142763624699,-0.05286273475928797,0.0,0.0,0.0,0.0,0.0,0.0,0.0
0.18500000000000014,11.931058072655778,3.467248848715423,-0.7004314521028235,-2.390340367490302,0.0,0.0,1.0,-0.9223175152889647,-0.0022924609462383777,0.9126752586203165,0.0007586531654404345,-0.05406183321975699,0.0,0.0,0.0,0.0,0.0,0.0,0.0
0.18600000000000014,11.909443333682994,3.481650020320655,-0.7055494789982484,-2.3871931905495836,0.0,0.0,1.0,-0.9213838775711277,-0.002344267136943383,0.9119650761643667,0.005633085899450862,-0.055233115329494986,0.0,0.0,0.0,0.0,0.0,0.0,0.0
0.18700000000000014,11.887879421202248,3.495494848767101,-0.7104575244751403,-2.3839351185296884,0.0,0.0,1.0,-0.9204463482599882,-0.0023966075585379943,0.9112534290037028,0.010470938624752221,-0.05637667448132805,0.0,0.0,0.0,0.0,0.0,0.0,0.0
0.18800000000000014,11.866367071370709,3.5087875045844403,-0.7151565835518524,-2.380569759647937,0.0,0.0,1.0,-0.9195049732886551,-0.002449478394012064,0.9105403239695607,0.015272001974248375,-0.05749260732147931,0.0,0.0,0.0,0.0,0.0,0.0,0.0
0.18900000000000014,11.844907054631847,3.521532190411595,-0.7196476816116164,-2.3771007216851676,0.0,0.0,1.0,-0.9185597986520886,-0.0025028756957088034,0.9098257679627756,0.020036073990119925,-0.058581013722714875,0.0,0.0,0.0,0.0,0.0,0.0,0.0
0.19000000000000014,11.823500174089911,3.5337331401815075,-0.7239318752118988,-2.3735316099415584,0.0,0.0,1.0,-0.9176108703993717,-0.002556795386880762,0.9091097679569657,0.024762960084750166,-0.059641996756414996,0.0,0.0,0.0,0.0,0.0,0.0,0.0
0.19100000000000014,11.802147263899268,3.545394618296263,-0.7280102528271326,-2.3698660252180663,0.0,0.0,1.0,-0.9166582346260528,-0.002611233263295676,0.9083923310015547,0.029452472999867554,-0.06067566266357067,0.0,0.0,0.0,0.0,0.0,0.0,0.0
0.19200000000000014,11.780849187669341,3.5565209187927915,-0.7318839355251674,-2.366107561824336,0.0,0.0,1.0,-0.9157019374665589,-0.0026661849948904645,0.9076734642246289,0.03410443276391582,-0.061682120824708586,0.0,0.0,0.0,0.0,0.0,0.0,0.0
0.19300000000000014,11.759606836885911,3.5671163644994754,-0.7355540775778372,-2.362259805613995,0.0,0.0,1.0,-0.9147420250866828,-0.0027216461274716247,0.9069531748356352,0.03871866664766835,-0.06266148372874945,0.0,0.0,0.0,0.0,0.0,0.0,0.0
0.19400000000000014,11.738421129349527,3.5771853061839467,-0.7390218670061431,-2.358326332048219,0.0,0.0,1.0,-0.9137785436761452,-0.002777612084460272,0.9062314701279193,0.04329500911810142,-0.0636138669408068,0.0,0.0,0.0,0.0,0.0,0.0,0.0
0.19500000000000015,11.717293007631692,3.586732121692433,-0.7422885260606119,-2.354310704288477,0.0,0.0,1.0,-0.9128115394412342,-0.0028340781686800433,0.9055083574811073,0.04783330179054918,-0.06453938906893587,0.0,0.0,0.0,0.0,0.0,0.0,0.0
0.19600000000000015,11.696223437549548,3.5957612150810045,-0.7453553116374776,-2.3502164713193707,0.0,0.0,1.0,-0.9118410585975237,-0.0028910395641860726,0.9047838443633323,0.052333393379160126,-0.0654381717298439,0.0,0.0,0.0,0.0,0.0,0.0,0.0
0.19700000000000015,11.675213406659674,3.6042770157391018,-0.7482235156313929,-2.3460471661024633,0.0,0.0,1.0,-0.9108671473626727,-0.0029484913381332425,0.9040579383333074,0.056795139645682675,-0.06631033951357501,0.0,0.0,0.0,0.0,0.0,0.0,0.0
0.19800000000000015,11.654263922771708,3.612283977505763,-0.7508944652254633,-2.341806303762005,0.0,0.0,1.0,-0.909889851949306,-0.0030064284426818996,0.9033306470422492,0.061218403346606186,-0.06715601994718537,0.0,0.0,0.0,0.0,0.0,0.0,0.0
0.19900000000000015,11.633376012482323,3.6197865777789486,-0.7533695231194458,-2.3374973798034526,0.0,0.0,1.0,-0.9089092185579805,-0.0030648457169392207,0.9026019782356516,0.06560305417868595,-0.06797534345742502,0.0,0.0,0.0,0.0,0.0,0.0,0.0
0.20000000000000015,11.612550719730216,3.6267893166184155,-0.7556500876970421,-2.3331238683656594,0.0,0.0,1.0,-0.9079252933702352,-0.0031237378889344136,0.9018719397549135,0.0699489687228864,-0.06876844333244563,0.0,0.0,0.0,0.0,0.0,0.0,0.0
0.20100000000000015,11.591789104372648,3.633296715842594,-0.757737593133254,-2.3286892205076186,0.0,0.0,1.0,-0.9069381225417305,-0.00318309957762593,0.9011405395388234,0.07425603038677393,-0.069535455682554,0.0,0.0,0.0,0.0,0.0,0.0,0.0
0.20200000000000015,11.57109224078406,3.63931331811993,-0.7596335094428517,-2.3241968625305964,0.0,0.0,1.0,-0.9059477521954737,-0.003242925294938881,0.9004077856249012,0.07852412934539706,-0.07027651940003354,0.0,0.0,0.0,0.0,0.0,0.0,0.0
0.20300000000000015,11.550461216477329,3.6448436860551756,-0.7613393424710516,-2.319650194336517,0.0,0.0,1.0,-0.9049542284151368,-0.003303209447830834,0.8996736861506015,0.08275316248069012,-0.07099177611805642,0.0,0.0,0.0,0.0,0.0,0.0,0.0
0.20400000000000015,11.52989713074809,3.6498924012711114,-0.7628566338275552,-2.3150525878233856,0.0,0.0,1.0,-0.903957597238464,-0.0033639463403841914,0.8989382493543797,0.08694303331944014,-0.0716813701687115,0.0,0.0,0.0,0.0,0.0,0.0,0.0
0.20500000000000015,11.509401093342653,3.6544640634862287,-0.7641869607651588,-2.3104073853185705,0.0,0.0,1.0,-0.902957904650773,-0.0034251301759233434,0.8982014835766247,0.09109365196985855,-0.07234544854017323,0.0,0.0,0.0,0.0,0.0,0.0,0.0
0.20600000000000016,11.4889742231499,3.6585632895888627,-0.7653319360041936,-2.305717898050688,0.0,0.0,1.0,-0.9019551965785492,-0.0034867550591548145,0.8974633972604583,0.09520493505679983,-0.07298416083303927,0.0,0.0,0.0,0.0,0.0,0.0,0.0
0.20700000000000016,11.468617646917604,3.662194712708286,-0.7662932075040941,-2.300987404660839,0.0,0.0,1.0,-0.9009495188831363,-0.0035488149983286194,0.8967239989524077,0.09927680565566947,-0.07359765921586395,0.0,0.0,0.0,0.0,0.0,0.0,0.0
0.20800000000000016,11.448332497993547,3.665362981283332,-0.767072458183451,-2.2962191497539064,0.0,0.0,1.0,-0.8999409173545223,-0.003611303907419069,0.8959832973029493,0.10330919322506917,-0.07418609837991744,0.0,0.0,0.0,0.0,0.0,0.0,0.0
0.20900000000000016,11.428119915091791,3.6680727581290387,-0.767671405589934,-2.2914163424905833,0.0,0.0,1.0,-0.8989294377052225,-0.003674215608323276,0.8952413010669303,0.10730203353822307,-0.07474963549320027,0.0,0.0,0.0,0.0,0.0,0.0,0.0
0.21000000000000016,11.407981041084431,3.6703287195018683,-0.7680918015215176,-2.286582155220778,0.0,0.0,1.0,-0.8979151255642616,-0.0037375438330756357,0.8944980191038681,0.11125526861323352,-0.07528843015374367,0.0,0.0,0.0,0.0,0.0,0.0,0.0
0.21100000000000016,11.387917021819145,3.672135554164047,-0.7683354316004751,-2.2817197221590084,0.0,0.0,1.0,-0.8968980264712543,-0.003801282226076562,0.8937534603781315,0.11516884664221501,-0.07580264434222828,0.0,0.0,0.0,0.0,0.0,0.0,0.0
0.21200000000000016,11.367929004962807,3.673497962447555,-0.7684041148016378,-2.2768321381023404,0.0,0.0,1.0,-0.8958781858705865,-0.0038654243463338,0.893007633959007,0.11904272191935406,-0.07629244237395219,0.0,0.0,0.0,0.0,0.0,0.0,0.0
0.21300000000000016,11.348018138871431,3.6744206553183263,-0.7682997029364531,-2.271922457191423,0.0,0.0,1.0,-0.894855649105697,-0.00392996366971464,0.8922605490206507,0.12287685476794727,-0.07675799085018246,0.0,0.0,0.0,0.0,0.0,0.0,0.0
0.21400000000000016,11.32818557148664,3.6749083534411855,-0.7680240800943949,-2.2669936917150904,0.0,0.0,1.0,-0.8938304614134603,-0.003994893591207397,0.8915122148419309,0.12667121146646612,-0.07719945860892263,0.0,0.0,0.0,0.0,0.0,0.0,0.0
0.21500000000000016,11.308432449258895,3.6749657862460845,-0.7675791620433159,-2.2620488109589987,0.0,0.0,1.0,-0.8928026679186728,-0.004060207427190526,0.8907626408061636,0.13042576417370128,-0.07761701667513053,0.0,0.0,0.0,0.0,0.0,0.0,0.0
0.21600000000000016,11.288759916097625,3.6745976909961495,-0.7669668955903346,-2.257090740098695,0.0,0.0,1.0,-0.8917723136286402,-0.004125898417707804,0.8900118364007426,0.13414049085303648,-0.07801083821042049,0.0,0.0,0.0,0.0,0.0,0.0,0.0
0.21700000000000016,11.269169112348427,3.673808811858122,-0.7661892579048936,-2.252122359137495,0.0,0.0,1.0,-0.8907394434278696,-0.0041919597287479946,0.889259811216668,0.13781537519590636,-0.07838109846228475,0.0,0.0,0.0,0.0,0.0,0.0,0.0
0.21800000000000017,11.249661173797433,3.672603898975674,-0.7652482558056208,-2.2471465018894756,0.0,0.0,1.0,-0.8897041020728645,-0.0042583844545274726,0.8885065749479762,0.1414504065444881,-0.07872797471286855,0.0,0.0,0.0,0.0,0.0,0.0,0.0
0.21900000000000017,11.230237230702965,3.670987707546173,-0.7641459250126564,-2.2421659550078834,0.0,0.0,1.0,-0.8886663341870242,-0.00432516561977431,0.8877521373910741,0.1450455798136815,-0.07905164622733454,0.0,0.0,0.0,0.0,0.0,0.0,0.0
0.22000000000000017,11.210898406854527,3.6689649969013973,-0.7628843293670962,-2.2371834570591655,0.0,0.0,1.0,-0.8876261842556473,-0.004392296182012345,0.8869965084439779,0.14860089541242907,-0.07935229420185089,0.0,0.0,0.0,0.0,0.0,0.0,0.0
0.22100000000000017,11.191645818659186,3.6665405295927167,-0.7614655600192486,-2.2322016976428345,0.0,0.0,1.0,-0.8865836966210406,-0.004459769033843802,0.8862396981054648,0.1521163591644285,-0.07963010171123919,0.0,0.0,0.0,0.0,0.0,0.0,0.0
0.22200000000000017,11.17248057425537,3.6637190704812657,-0.7598917345873584,-2.2272233165572937,0.0,0.0,1.0,-0.8855389154777321,-0.004527577005229051,0.8854817164741341,0.15559198222829207,-0.07988525365631664,0.0,0.0,0.0,0.0,0.0,0.0,0.0
0.22300000000000017,11.15340377265407,3.6605053858335914,-0.7581649962885035,-2.222250903011722,0.0,0.0,1.0,-0.8844918848677893,-0.00459571286576215,0.8847225737473854,0.15902778101720227,-0.08011793671096847,0.0,0.0,0.0,0.0,0.0,0.0,0.0
0.22400000000000017,11.134416502907408,3.656904242423282,-0.7562875130433353,-2.2172869948840797,0.0,0.0,1.0,-0.8834426486762428,-0.004664169326940817,0.8839622802203136,0.1624237771181194,-0.08032833926898499,0.0,0.0,0.0,0.0,0.0,0.0,0.0
0.22500000000000017,11.115519843304579,3.65292040663907,-0.7542614765563462,-2.212334078025216,0.0,0.0,1.0,-0.8823912506266143,-0.004732939044429546,0.8832008462845264,0.16577999721059114,-0.08051665139069858,0.0,0.0,0.0,0.0,0.0,0.0,0.0
0.22600000000000017,11.096714860595009,3.6485586435998494,-0.7520891013733456,-2.207394585609069,0.0,0.0,1.0,-0.8813377342765502,-0.004802014620314604,0.8824382824268835,0.16909647298521532,-0.08068306474945558,0.0,0.0,0.0,0.0,0.0,0.0,0.0
0.22700000000000017,11.078002609238698,3.6438237162770974,-0.7497726239178171,-2.202470897528843,0.0,0.0,1.0,-0.8802821430135598,-0.004871388605349675,0.8816745992281635,0.17237324106180782,-0.08082777257795706,0.0,0.0,0.0,0.0,0.0,0.0,0.0
0.22800000000000017,11.059384130683632,3.6387203846251706,-0.7473143015078074,-2.1975653398390413,0.0,0.0,1.0,-0.879224520050858,-0.004941053501190972,0.8809098073616605,0.17561034290732733,-0.08095096961450282,0.0,0.0,0.0,0.0,0.0,0.0,0.0
0.22900000000000018,11.040860452670088,3.633253404719858,-0.7447164113550173,-2.192680184243193,0.0,0.0,1.0,-0.8781649084233129,-0.00501100176262066,0.8801439175917112,0.17880782475360443,-0.08105285204917285,0.0,0.0,0.0,0.0,0.0,0.0,0.0
0.23000000000000018,11.022432588561713,3.627427527905687,-0.7419812495477126,-2.1878176476270212,0.0,0.0,1.0,-0.8771033509834965,-0.005081225799757484,0.8793769407721586,0.18196573751492748,-0.08113361746997924,0.0,0.0,0.0,0.0,0.0,0.0,0.0
0.23100000000000018,11.004101536703201,3.6212474999523394,-0.7391111300190913,-2.1829798916368266,0.0,0.0,1.0,-0.8760398903978405,-0.005151717980253523,0.8786088878447514,0.18508413670553073,-0.08119346480902154,0.0,0.0,0.0,0.0,0.0,0.0,0.0
0.23200000000000018,10.985868279804347,3.6147180602206297,-0.736108383502704,-2.1781690223027446,0.0,0.0,1.0,-0.8749745691428944,-0.005222470631476042,0.8778397698374855,0.18816308235703602,-0.0812325942886784,0.0,0.0,0.0,0.0,0.0,0.0,0.0
0.23300000000000018,10.967733784350298,3.6078439408383915,-0.7329753564765166,-2.1733870897065586,0.0,0.0,1.0,-0.8739074295016869,-0.005293476042673442,0.8770695978628864,0.1912026389358927,-0.08125120736786758,0.0,0.0,0.0,0.0,0.0,0.0,0.0
0.23400000000000018,10.949699000037752,3.600629865886694,-0.7297144100971773,-2.168636087693653,0.0,0.0,1.0,-0.8728385135601894,-0.00536472646712435,0.876298383116239,0.19420287526086433,-0.08124950668840523,0.0,0.0,0.0,0.0,0.0,0.0,0.0
0.23500000000000018,10.931764859236877,3.593080550596697,-0.7263279191260305,-2.1639179536286957,0.0,0.0,1.0,-0.8717678632038816,-0.00543621412426894,0.8755261368737646,0.19716386442060513,-0.08122769602149629,0.0,0.0,0.0,0.0,0.0,0.0,0.0
0.23600000000000018,10.913932276478654,3.585200700557541,-0.7228182708483872,-2.159234568194574,0.0,0.0,1.0,-0.8706955201144179,-0.0055079312018215965,0.8747528704907486,0.20008568369137297,-0.08118598021438544,0.0,0.0,0.0,0.0,0.0,0.0,0.0
0.23700000000000018,10.896202147967422,3.576995010935576,-0.7191878639875541,-2.154587755234077,0.0,0.0,1.0,-0.8696215257663945,-0.005579869857864092,0.8739785953996222,0.2029684144549219,-0.08112456513719897,0.0,0.0,0.0,0.0,0.0,0.0,0.0
0.23800000000000018,10.878575351118265,3.568468165705263,-0.7154391076150632,-2.1499792816337817,0.0,0.0,1.0,-0.8685459214242164,-0.005652022222918464,0.8732033231079993,0.20581214211661578,-0.08104365763000622,0.0,0.0,0.0,0.0,0.0,0.0,0.0
0.23900000000000018,10.861052744118993,3.5596248368920267,-0.7115744200585536,-2.1454108572495656,0.0,0.0,1.0,-0.8674687481390629,-0.005724380401998847,0.8724270651966725,0.20861695602380567,-0.08094346545012908,0.0,0.0,0.0,0.0,0.0,0.0,0.0
0.24000000000000019,10.843635165516378,3.550469683827393,-0.7075962278086907,-2.1408841348731333,0.0,0.0,1.0,-0.8663900467459522,-0.005796936476641524,0.8716498333175691,0.21138294938451166,-0.08082419721972729,0.0,0.0,0.0,0.0,0.0,0.0,0.0
0.2410000000000002,10.82632343382628,3.541007352416633,-0.7035069644265007,-2.1364007102389073,0.0,0.0,1.0,-0.8653098578609019,-0.005869682506912518,0.8708716391916711,0.21411021918644685,-0.08068606237368654,0.0,0.0,0.0,0.0,0.0,0.0,0.0
0.2420000000000002,10.809118347167388,3.5312424744192072,-0.6993090694524468,-2.1319621220706053,0.0,0.0,1.0,-0.8642282218781877,-0.0059426105333920745,0.8700924946069012,0.21679886611642385,-0.08052927110783503,0.0,0.0,0.0,0.0,0.0,0.0,0.0
0.2430000000000002,10.792020682918137,3.521179666742243,-0.6950049873185541,-2.1275698521668023,0.0,0.0,1.0,-0.8631451789676967,-0.0060157125791354266,0.8693124114159752,0.21944899448017927,-0.08035403432751473,0.0,0.0,0.0,0.0,0.0,0.0,0.0
0.2440000000000002,10.775031197396512,3.510823530747266,-0.6905971662648459,-2.123225325524733,0.0,0.0,1.0,-0.8620607690723752,-0.006088980651609273,0.8685314015342268,0.22206071212265294,-0.08016056359653145,0.0,0.0,0.0,0.0,0.0,0.0,0.0
0.2450000000000002,10.75815062556231,3.500178651570409,-0.6860880572613143,-2.1189299105015755,0.0,0.0,1.0,-0.8609750319057704,-0.006162406744603429,0.8677494769374038,0.22463413034875668,-0.07994907108650784,0.0,0.0,0.0,0.0,0.0,0.0,0.0
0.2460000000000002,10.7413796807415,3.4892495974562836,-0.6814801129366225,-2.1146849190124186,0.0,0.0,1.0,-0.8598880069496649,-0.006235982840117152,0.8669666496594395,0.227169363844665,-0.07971976952666217,0.0,0.0,0.0,0.0,0.0,0.0,0.0
0.2470000000000002,10.724719054372274,3.478040919105712,-0.676775786514685,-2.1104916067641066,0.0,0.0,1.0,-0.8587997334518024,-0.006309700910219686,0.8661829317902012,0.22966653059966247,-0.07947287215403556,0.0,0.0,0.0,0.0,0.0,0.0,0.0
0.2480000000000002,10.708169415772398,3.4665571490374645,-0.6719775307602441,-2.106351173524123,0.0,0.0,1.0,-0.8577102504237037,-0.00638355291888458,0.8653983354732181,0.23212575182857523,-0.07920859266418886,0.0,0.0,0.0,0.0,0.0,0.0,0.0
0.2490000000000002,10.691731411927451,3.4548028009641896,-0.6670877969345086,-2.102264763423643,0.0,0.0,1.0,-0.8566195966385727,-0.006457530823797412,0.8646128729033901,0.23454715189482156,-0.0789271451623896,0.0,0.0,0.0,0.0,0.0,0.0,0.0
0.25000000000000017,10.675405667299524,3.4427823691826234,-0.6621090337618927,-2.098233465293887,0.0,0.0,1.0,-0.8555278106292896,-0.0065316265781365235,0.8638265563246801,0.23693085823410376,-0.07862874411530926,0.0,0.0,0.0,0.0,0.0,0.0,0.0
