T,Px,Py,Pz,Vx,Vy,Vz,Roll,Pitch,Yaw,R_rate,P_rate,Y_rate,Wb1,Wb2,Wb3
0,0.0,[0. 0. 0.],0.0,0.0,1.0,0.0,0.0,0.0,0.0,0.0,0.0,0.0,0.0,0.0,0.0,0.0,0.0
0.001,19.805,[0. 0. 0.],0.0,0.0,1.0,0.0,0.0,0.0,0.0,0.0,0.0,0.0,0.0,0.0,0.0,0.0,0.0
0.002,19.70981136430025,[0. 0. 0.],0.0,0.0,1.0,0.0,0.0,0.0,0.0,0.0,0.0,0.0,0.0,0.0,0.0,0.0,0.0
0.003,19.615426254023035,[ 0.00696681  0.00541108 -0.00487733],0.0,0.0,1.0,0.0,0.0,0.0,0.0,0.0,0.0,0.0,0.0,0.0,0.0,0.0,0.0
0.004,19.52183794690051,[ 0.01854158  0.01440919 -0.0097095 ],0.0,0.0,1.0,0.0,0.0,0.0,0.0,0.0,0.0,0.0,0.0,0.0,0.0,0.0,0.0
0.005,19.42903998245285,[ 0.0331607   0.02577931 -0.01444714],0.0,0.0,1.0,0.0,0.0,0.0,0.0,0.0,0.0,0.0,0.0,0.0,0.0,0.0,0.0
0.006,19.33702608431117,[ 0.04978385  0.03871225 -0.01909094],0.0,0.0,1.0,0.0,0.0,0.0,0.0,0.0,0.0,0.0,0.0,0.0,0.0,0.0,0.0
0.007,19.24579010322139,[ 0.06771786  0.05266817 -0.02364267],0.0,0.0,1.0,0.0,0.0,0.0,0.0,0.0,0.0,0.0,0.0,0.0,0.0,0.0,0.0
0.008,19.155325973654797,[ 0.08649986  0.06728608 -0.02810446],0.0,0.0,1.0,0.0,0.0,0.0,0.0,0.0,0.0,0.0,0.0,0.0,0.0,0.0,0.0
0.009000000000000001,19.065627684662893,[ 0.1058198   0.08232374 -0.0324786 ],0.0,0.0,1.0,0.0,0.0,0.0,0.0,0.0,0.0,0.0,0.0,0.0,0.0,0.0,0.0
0.010000000000000002,18.976689261855107,[ 0.12546906  0.09761785 -0.03676746],0.0,0.0,1.0,0.0,0.0,0.0,0.0,0.0,0.0,0.0,0.0,0.0,0.0,0.0,0.0
0.011000000000000003,18.888504757050477,[ 0.1453064   0.11305756 -0.04097331],0.0,0.0,1.0,0.0,0.0,0.0,0.0,0.0,0.0,0.0,0.0,0.0,0.0,0.0,0.0
0.012000000000000004,18.801068242864154,[ 0.16523535  0.1285669  -0.04509839],0.0,0.0,1.0,0.0,0.0,0.0,0.0,0.0,0.0,0.0,0.0,0.0,0.0,0.0,0.0
0.013000000000000005,18.714373810312992,[ 0.18518921  0.14409318 -0.04914483],0.0,0.0,1.0,0.0,0.0,0.0,0.0,0.0,0.0,0.0,0.0,0.0,0.0,0.0,0.0
0.014000000000000005,18.628415568189528,[ 0.20512113  0.15959922 -0.05311468],0.0,0.0,1.0,0.0,0.0,0.0,0.0,0.0,0.0,0.0,0.0,0.0,0.0,0.0,0.0
0.015000000000000006,18.543187643424965,[ 0.22499752  0.1750582  -0.05700995],0.0,0.0,1.0,0.0,0.0,0.0,0.0,0.0,0.0,0.0,0.0,0.0,0.0,0.0,0.0
0.016000000000000007,18.45868418197206,[ 0.24479365  0.1904503  -0.06083254],0.0,0.0,1.0,0.0,0.0,0.0,0.0,0.0,0.0,0.0,0.0,0.0,0.0,0.0,0.0
0.017000000000000008,18.37489934993519,[ 0.26449076  0.20576041 -0.06458435],0.0,0.0,1.0,0.0,0.0,0.0,0.0,0.0,0.0,0.0,0.0,0.0,0.0,0.0,0.0
0.01800000000000001,18.291827334794135,[ 0.28407418  0.2209766  -0.06826721],0.0,0.0,1.0,0.0,0.0,0.0,0.0,0.0,0.0,0.0,0.0,0.0,0.0,0.0,0.0
0.01900000000000001,18.209462346639054,[ 0.30353196  0.23608919 -0.07188294],0.0,0.0,1.0,0.0,0.0,0.0,0.0,0.0,0.0,0.0,0.0,0.0,0.0,0.0,0.0
0.02000000000000001,18.127798619374815,[ 0.3228541   0.25109001 -0.07543333],0.0,0.0,1.0,0.0,0.0,0.0,0.0,0.0,0.0,0.0,0.0,0.0,0.0,0.0,0.0
0.02100000000000001,18.046830411875437,[ 0.34203196  0.265972   -0.07892012],0.0,0.0,1.0,0.0,0.0,0.0,0.0,0.0,0.0,0.0,0.0,0.0,0.0,0.0,0.0
0.022000000000000013,17.96655200908162,[ 0.36105787  0.28072891 -0.08234506],0.0,0.0,1.0,0.0,0.0,0.0,0.0,0.0,0.0,0.0,0.0,0.0,0.0,0.0,0.0
0.023000000000000013,17.886957723040418,[ 0.3799249   0.2953551  -0.08570987],0.0,0.0,1.0,0.0,0.0,0.0,0.0,0.0,0.0,0.0,0.0,0.0,0.0,0.0,0.0
0.024000000000000014,17.808041893888735,[ 0.39862668  0.30984539 -0.08901623],0.0,0.0,1.0,0.0,0.0,0.0,0.0,0.0,0.0,0.0,0.0,0.0,0.0,0.0,0.0
0.025000000000000015,17.729798890783513,[ 0.4171573   0.32419501 -0.09226583],0.0,0.0,1.0,0.0,0.0,0.0,0.0,0.0,0.0,0.0,0.0,0.0,0.0,0.0,0.0
0.026000000000000016,17.6522231127816,[ 0.4355112   0.33839949 -0.09546031],0.0,0.0,1.0,0.0,0.0,0.0,0.0,0.0,0.0,0.0,0.0,0.0,0.0,0.0,0.0
0.027000000000000017,17.575308989671814,[ 0.45368317  0.35245465 -0.0986013 ],0.0,0.0,1.0,0.0,0.0,0.0,0.0,0.0,0.0,0.0,0.0,0.0,0.0,0.0,0.0
0.028000000000000018,17.499050982761784,[ 0.47166829  0.36635657 -0.1016904 ],0.0,0.0,1.0,0.0,0.0,0.0,0.0,0.0,0.0,0.0,0.0,0.0,0.0,0.0,0.0
0.02900000000000002,17.42344358562131,[ 0.48946187  0.38010156 -0.10472919],0.0,0.0,1.0,0.0,0.0,0.0,0.0,0.0,0.0,0.0,0.0,0.0,0.0,0.0,0.0
0.03000000000000002,17.348481324784007,[ 0.50705949  0.39368613 -0.10771921],0.0,0.0,1.0,0.0,0.0,0.0,0.0,0.0,0.0,0.0,0.0,0.0,0.0,0.0,0.0
0.03100000000000002,17.274158760408543,[ 0.52445697  0.40710701 -0.11066199],0.0,0.0,1.0,0.0,0.0,0.0,0.0,0.0,0.0,0.0,0.0,0.0,0.0,0.0,0.0
0.03200000000000002,17.200470486900677,[ 0.54165032  0.42036112 -0.11355901],0.0,0.0,1.0,0.0,0.0,0.0,0.0,0.0,0.0,0.0,0.0,0.0,0.0,0.0,0.0
0.03300000000000002,17.1274111334971,[ 0.55863577  0.43344557 -0.11641173],0.0,0.0,1.0,0.0,0.0,0.0,0.0,0.0,0.0,0.0,0.0,0.0,0.0,0.0,0.0
0.03400000000000002,17.054975364812037,[ 0.57540978  0.44635766 -0.11922159],0.0,0.0,1.0,0.0,0.0,0.0,0.0,0.0,0.0,0.0,0.0,0.0,0.0,0.0,0.0
0.035000000000000024,16.98315788134743,[ 0.59196899  0.45909483 -0.12198998],0.0,0.0,1.0,0.0,0.0,0.0,0.0,0.0,0.0,0.0,0.0,0.0,0.0,0.0,0.0
0.036000000000000025,16.911953419967624,[ 0.60831023  0.47165473 -0.12471826],0.0,0.0,1.0,0.0,0.0,0.0,0.0,0.0,0.0,0.0,0.0,0.0,0.0,0.0,0.0
0.037000000000000026,16.84135675433923,[ 0.62443052  0.48403515 -0.12740776],0.0,0.0,1.0,0.0,0.0,0.0,0.0,0.0,0.0,0.0,0.0,0.0,0.0,0.0,0.0
0.03800000000000003,16.771362695337075,[ 0.64032707  0.49623405 -0.13005978],0.0,0.0,1.0,0.0,0.0,0.0,0.0,0.0,0.0,0.0,0.0,0.0,0.0,0.0,0.0
0.03900000000000003,16.701966091416974,[ 0.65599728  0.50824954 -0.13267556],0.0,0.0,1.0,0.0,0.0,0.0,0.0,0.0,0.0,0.0,0.0,0.0,0.0,0.0,0.0
0.04000000000000003,16.633161828956112,[ 0.6714387   0.52007987 -0.13525634],0.0,0.0,1.0,0.0,0.0,0.0,0.0,0.0,0.0,0.0,0.0,0.0,0.0,0.0,0.0
0.04100000000000003,16.564944832561903,[ 0.68664908  0.53172347 -0.13780331],0.0,0.0,1.0,0.0,0.0,0.0,0.0,0.0,0.0,0.0,0.0,0.0,0.0,0.0,0.0
0.04200000000000003,16.497310065350057,[ 0.70162631  0.54317887 -0.14031761],0.0,0.0,1.0,0.0,0.0,0.0,0.0,0.0,0.0,0.0,0.0,0.0,0.0,0.0,0.0
0.04300000000000003,16.430252529192728,[ 0.71636847  0.55444478 -0.14280035],0.0,0.0,1.0,0.0,0.0,0.0,0.0,0.0,0.0,0.0,0.0,0.0,0.0,0.0,0.0
0.04400000000000003,16.363767264937565,[ 0.73087377  0.56552    -0.14525263],0.0,0.0,1.0,0.0,0.0,0.0,0.0,0.0,0.0,0.0,0.0,0.0,0.0,0.0,0.0
0.04500000000000003,16.297849352598483,[ 0.74514061  0.57640351 -0.14767548],0.0,0.0,1.0,0.0,0.0,0.0,0.0,0.0,0.0,0.0,0.0,0.0,0.0,0.0,0.0
0.046000000000000034,16.232493911518986,[ 0.75916751  0.58709436 -0.1500699 ],0.0,0.0,1.0,0.0,0.0,0.0,0.0,0.0,0.0,0.0,0.0,0.0,0.0,0.0,0.0
0.047000000000000035,16.16769610050892,[ 0.77295315  0.59759178 -0.15243687],0.0,0.0,1.0,0.0,0.0,0.0,0.0,0.0,0.0,0.0,0.0,0.0,0.0,0.0,0.0
0.048000000000000036,16.103451117955476,[ 0.78649637  0.60789508 -0.15477732],0.0,0.0,1.0,0.0,0.0,0.0,0.0,0.0,0.0,0.0,0.0,0.0,0.0,0.0,0.0
0.04900000000000004,16.039754201909275,[ 0.79979613  0.6180037  -0.15709214],0.0,0.0,1.0,0.0,0.0,0.0,0.0,0.0,0.0,0.0,0.0,0.0,0.0,0.0,0.0
0.05000000000000004,15.976600630146415,[ 0.81285152  0.62791718 -0.15938221],0.0,0.0,1.0,0.0,0.0,0.0,0.0,0.0,0.0,0.0,0.0,0.0,0.0,0.0,0.0
0.05100000000000004,15.913985720207293,[ 0.82566179  0.63763519 -0.16164834],0.0,0.0,1.0,0.0,0.0,0.0,0.0,0.0,0.0,0.0,0.0,0.0,0.0,0.0,0.0
0.05200000000000004,15.851904829413066,[ 0.83822631  0.64715748 -0.16389133],0.0,0.0,1.0,0.0,0.0,0.0,0.0,0.0,0.0,0.0,0.0,0.0,0.0,0.0,0.0
0.05300000000000004,15.790353354860532,[ 0.85054456  0.65648393 -0.16611194],0.0,0.0,1.0,0.0,0.0,0.0,0.0,0.0,0.0,0.0,0.0,0.0,0.0,0.0,0.0
0.05400000000000004,15.729326733396348,[ 0.86261615  0.66561448 -0.16831089],0.0,0.0,1.0,0.0,0.0,0.0,0.0,0.0,0.0,0.0,0.0,0.0,0.0,0.0,0.0
0.05500000000000004,15.668820441571302,[ 0.87444083  0.6745492  -0.17048888],0.0,0.0,1.0,0.0,0.0,0.0,0.0,0.0,0.0,0.0,0.0,0.0,0.0,0.0,0.0
0.05600000000000004,15.608829995575523,[ 0.88601844  0.68328823 -0.17264655],0.0,0.0,1.0,0.0,0.0,0.0,0.0,0.0,0.0,0.0,0.0,0.0,0.0,0.0,0.0
0.057000000000000044,15.5493509511554,[ 0.89734894  0.69183181 -0.17478453],0.0,0.0,1.0,0.0,0.0,0.0,0.0,0.0,0.0,0.0,0.0,0.0,0.0,0.0,0.0
0.058000000000000045,15.490378903513,[ 0.90843241  0.70018026 -0.17690342],0.0,0.0,1.0,0.0,0.0,0.0,0.0,0.0,0.0,0.0,0.0,0.0,0.0,0.0,0.0
0.059000000000000045,15.431909487188753,[ 0.91926902  0.70833399 -0.17900378],0.0,0.0,1.0,0.0,0.0,0.0,0.0,0.0,0.0,0.0,0.0,0.0,0.0,0.0,0.0
0.060000000000000046,15.373938375928219,[ 0.92985904  0.71629348 -0.18108614],0.0,0.0,1.0,0.0,0.0,0.0,0.0,0.0,0.0,0.0,0.0,0.0,0.0,0.0,0.0
0.06100000000000005,15.31646128253361,[ 0.94020287  0.72405928 -0.18315101],0.0,0.0,1.0,0.0,0.0,0.0,0.0,0.0,0.0,0.0,0.0,0.0,0.0,0.0,0.0
0.06200000000000005,15.259473958700882,[ 0.95030097  0.73163203 -0.18519884],0.0,0.0,1.0,0.0,0.0,0.0,0.0,0.0,0.0,0.0,0.0,0.0,0.0,0.0,0.0
0.06300000000000004,15.20297219484306,[ 0.96015392  0.73901244 -0.1872301 ],0.0,0.0,1.0,0.0,0.0,0.0,0.0,0.0,0.0,0.0,0.0,0.0,0.0,0.0,0.0
0.06400000000000004,15.146951819900568,[ 0.96976237  0.74620128 -0.1892452 ],0.0,0.0,1.0,0.0,0.0,0.0,0.0,0.0,0.0,0.0,0.0,0.0,0.0,0.0,0.0
0.06500000000000004,15.09140870113918,[ 0.97912706  0.75319938 -0.19124452],0.0,0.0,1.0,0.0,0.0,0.0,0.0,0.0,0.0,0.0,0.0,0.0,0.0,0.0,0.0
0.06600000000000004,15.03633874393637,[ 0.98824884  0.76000765 -0.19322843],0.0,0.0,1.0,0.0,0.0,0.0,0.0,0.0,0.0,0.0,0.0,0.0,0.0,0.0,0.0
0.06700000000000005,14.981737891556605,[ 0.99712862  0.76662705 -0.19519726],0.0,0.0,1.0,0.0,0.0,0.0,0.0,0.0,0.0,0.0,0.0,0.0,0.0,0.0,0.0
0.06800000000000005,14.927602124916351,[ 1.00576738  0.7730586  -0.19715134],0.0,0.0,1.0,0.0,0.0,0.0,0.0,0.0,0.0,0.0,0.0,0.0,0.0,0.0,0.0
0.06900000000000005,14.873927462339328,[ 1.01416619  0.77930338 -0.19909095],0.0,0.0,1.0,0.0,0.0,0.0,0.0,0.0,0.0,0.0,0.0,0.0,0.0,0.0,0.0
0.07000000000000005,14.820709959302668,[ 1.02232621  0.78536252 -0.20101636],0.0,0.0,1.0,0.0,0.0,0.0,0.0,0.0,0.0,0.0,0.0,0.0,0.0,0.0,0.0
0.07100000000000005,14.767945708174581,[ 1.03024863  0.79123719 -0.2029278 ],0.0,0.0,1.0,0.0,0.0,0.0,0.0,0.0,0.0,0.0,0.0,0.0,0.0,0.0,0.0
0.07200000000000005,14.715630837944078,[ 1.03793474  0.79692863 -0.20482551],0.0,0.0,1.0,0.0,0.0,0.0,0.0,0.0,0.0,0.0,0.0,0.0,0.0,0.0,0.0
0.07300000000000005,14.663761513943339,[ 1.04538588  0.80243811 -0.20670968],0.0,0.0,1.0,0.0,0.0,0.0,0.0,0.0,0.0,0.0,0.0,0.0,0.0,0.0,0.0
0.07400000000000005,14.612333937563267,[ 1.05260348  0.80776696 -0.20858049],0.0,0.0,1.0,0.0,0.0,0.0,0.0,0.0,0.0,0.0,0.0,0.0,0.0,0.0,0.0
0.07500000000000005,14.561344345962771,[ 1.05958899  0.81291653 -0.21043812],0.0,0.0,1.0,0.0,0.0,0.0,0.0,0.0,0.0,0.0,0.0,0.0,0.0,0.0,0.0
0.07600000000000005,14.510789011772232,[ 1.06634394  0.81788823 -0.21228269],0.0,0.0,1.0,0.0,0.0,0.0,0.0,0.0,0.0,0.0,0.0,0.0,0.0,0.0,0.0
0.07700000000000005,14.460664242791736,[ 1.07286992  0.82268351 -0.21411434],0.0,0.0,1.0,0.0,0.0,0.0,0.0,0.0,0.0,0.0,0.0,0.0,0.0,0.0,0.0
0.07800000000000006,14.410966381684485,[ 1.07916857  0.82730384 -0.21593318],0.0,0.0,1.0,0.0,0.0,0.0,0.0,0.0,0.0,0.0,0.0,0.0,0.0,0.0,0.0
0.07900000000000006,14.361691805665888,[ 1.08524157  0.83175074 -0.2177393 ],0.0,0.0,1.0,0.0,0.0,0.0,0.0,0.0,0.0,0.0,0.0,0.0,0.0,0.0,0.0
0.08000000000000006,14.312836926188735,[ 1.09109067  0.83602576 -0.21953277],0.0,0.0,1.0,0.0,0.0,0.0,0.0,0.0,0.0,0.0,0.0,0.0,0.0,0.0,0.0
0.08100000000000006,14.264398188624945,[ 1.09671765  0.84013047 -0.22131366],0.0,0.0,1.0,0.0,0.0,0.0,0.0,0.0,0.0,0.0,0.0,0.0,0.0,0.0,0.0
0.08200000000000006,14.216372071944246,[ 1.10212435  0.84406648 -0.22308202],0.0,0.0,1.0,0.0,0.0,0.0,0.0,0.0,0.0,0.0,0.0,0.0,0.0,0.0,0.0
0.08300000000000006,14.168755088390219,[ 1.10731262  0.84783543 -0.22483788],0.0,0.0,1.0,0.0,0.0,0.0,0.0,0.0,0.0,0.0,0.0,0.0,0.0,0.0,0.0
0.08400000000000006,14.121543783154063,[ 1.11228439  0.85143898 -0.22658126],0.0,0.0,1.0,0.0,0.0,0.0,0.0,0.0,0.0,0.0,0.0,0.0,0.0,0.0,0.0
0.08500000000000006,14.074734734046494,[ 1.11704161  0.85487881 -0.22831218],0.0,0.0,1.0,0.0,0.0,0.0,0.0,0.0,0.0,0.0,0.0,0.0,0.0,0.0,0.0
0.08600000000000006,14.028324551168062,[ 1.12158628  0.85815664 -0.23003063],0.0,0.0,1.0,0.0,0.0,0.0,0.0,0.0,0.0,0.0,0.0,0.0,0.0,0.0,0.0
0.08700000000000006,13.982309876578286,[ 1.1259204   0.8612742  -0.23173661],0.0,0.0,1.0,0.0,0.0,0.0,0.0,0.0,0.0,0.0,0.0,0.0,0.0,0.0,0.0
0.08800000000000006,13.936687383963903,[ 1.13004604  0.86423324 -0.23343008],0.0,0.0,1.0,0.0,0.0,0.0,0.0,0.0,0.0,0.0,0.0,0.0,0.0,0.0,0.0
0.08900000000000007,13.89145377830652,[ 1.1339653   0.86703554 -0.23511103],0.0,0.0,1.0,0.0,0.0,0.0,0.0,0.0,0.0,0.0,0.0,0.0,0.0,0.0,0.0
0.09000000000000007,13.846605795550024,[ 1.13768028  0.86968287 -0.23677941],0.0,0.0,1.0,0.0,0.0,0.0,0.0,0.0,0.0,0.0,0.0,0.0,0.0,0.0,0.0
0.09100000000000007,13.80214020226795,[ 1.14119312  0.87217704 -0.23843517],0.0,0.0,1.0,0.0,0.0,0.0,0.0,0.0,0.0,0.0,0.0,0.0,0.0,0.0,0.0
0.09200000000000007,13.758053795331156,[ 1.14450602  0.87451988 -0.24007826],0.0,0.0,1.0,0.0,0.0,0.0,0.0,0.0,0.0,0.0,0.0,0.0,0.0,0.0,0.0
0.09300000000000007,13.71434340157598,[ 1.14762114  0.87671321 -0.24170862],0.0,0.0,1.0,0.0,0.0,0.0,0.0,0.0,0.0,0.0,0.0,0.0,0.0,0.0,0.0
0.09400000000000007,13.671005877473211,[ 1.15054073  0.87875888 -0.24332618],0.0,0.0,1.0,0.0,0.0,0.0,0.0,0.0,0.0,0.0,0.0,0.0,0.0,0.0,0.0
0.09500000000000007,13.628038108797996,[ 1.15326701  0.88065875 -0.24493086],0.0,0.0,1.0,0.0,0.0,0.0,0.0,0.0,0.0,0.0,0.0,0.0,0.0,0.0,0.0
0.09600000000000007,13.58543701030102,[ 1.15580224  0.88241467 -0.24652259],0.0,0.0,1.0,0.0,0.0,0.0,0.0,0.0,0.0,0.0,0.0,0.0,0.0,0.0,0.0
0.09700000000000007,13.543199525381043,[ 1.1581487   0.88402854 -0.24810129],0.0,0.0,1.0,0.0,0.0,0.0,0.0,0.0,0.0,0.0,0.0,0.0,0.0,0.0,0.0
0.09800000000000007,13.501322625759105,[ 1.16030869  0.88550222 -0.24966685],0.0,0.0,1.0,0.0,0.0,0.0,0.0,0.0,0.0,0.0,0.0,0.0,0.0,0.0,0.0
0.09900000000000007,13.459803311154477,[ 1.16228451  0.88683761 -0.2512192 ],0.0,0.0,1.0,0.0,0.0,0.0,0.0,0.0,0.0,0.0,0.0,0.0,0.0,0.0,0.0
0.10000000000000007,13.418638608962604,[ 1.16407849  0.8880366  -0.25275823],0.0,0.0,1.0,0.0,0.0,0.0,0.0,0.0,0.0,0.0,0.0,0.0,0.0,0.0,0.0
0.10100000000000008,13.377825573935176,[ 1.16569296  0.88910109 -0.25428385],0.0,0.0,1.0,0.0,0.0,0.0,0.0,0.0,0.0,0.0,0.0,0.0,0.0,0.0,0.0
0.10200000000000008,13.337361287862466,[ 1.16713026  0.89003299 -0.25579596],0.0,0.0,1.0,0.0,0.0,0.0,0.0,0.0,0.0,0.0,0.0,0.0,0.0,0.0,0.0
0.10300000000000008,13.297242859258098,[ 1.16839276  0.8908342  -0.25729445],0.0,0.0,1.0,0.0,0.0,0.0,0.0,0.0,0.0,0.0,0.0,0.0,0.0,0.0,0.0
0.10400000000000008,13.257467423046368,[ 1.16948281  0.89150664 -0.25877922],0.0,0.0,1.0,0.0,0.0,0.0,0.0,0.0,0.0,0.0,0.0,0.0,0.0,0.0,0.0
0.10500000000000008,13.218032140252237,[ 1.17040279  0.8920522  -0.26025017],0.0,0.0,1.0,0.0,0.0,0.0,0.0,0.0,0.0,0.0,0.0,0.0,0.0,0.0,0.0
0.10600000000000008,13.178934197694119,[ 1.17115509  0.8924728  -0.26170719],0.0,0.0,1.0,0.0,0.0,0.0,0.0,0.0,0.0,0.0,0.0,0.0,0.0,0.0,0.0
0.10700000000000008,13.140170807679555,[ 1.17174207  0.89277034 -0.26315017],0.0,0.0,1.0,0.0,0.0,0.0,0.0,0.0,0.0,0.0,0.0,0.0,0.0,0.0,0.0
0.10800000000000008,13.101739207703892,[ 1.17216614  0.89294675 -0.264579  ],0.0,0.0,1.0,0.0,0.0,0.0,0.0,0.0,0.0,0.0,0.0,0.0,0.0,0.0,0.0
0.10900000000000008,13.063636660152039,[ 1.17242968  0.89300391 -0.26599359],0.0,0.0,1.0,0.0,0.0,0.0,0.0,0.0,0.0,0.0,0.0,0.0,0.0,0.0,0.0
0.11000000000000008,13.025860452003378,[ 1.17253508  0.89294374 -0.26739381],0.0,0.0,1.0,0.0,0.0,0.0,0.0,0.0,0.0,0.0,0.0,0.0,0.0,0.0,0.0
0.11100000000000008,12.988407894539922,[ 1.17248473  0.89276814 -0.26877958],0.0,0.0,1.0,0.0,0.0,0.0,0.0,0.0,0.0,0.0,0.0,0.0,0.0,0.0,0.0
0.11200000000000009,12.951276323057776,[ 1.17228104  0.89247899 -0.27015078],0.0,0.0,1.0,0.0,0.0,0.0,0.0,0.0,0.0,0.0,0.0,0.0,0.0,0.0,0.0
0.11300000000000009,12.914463096581951,[ 1.17192639  0.8920782  -0.27150731],0.0,0.0,1.0,0.0,0.0,0.0,0.0,0.0,0.0,0.0,0.0,0.0,0.0,0.0,0.0
0.11400000000000009,12.877965597584613,[ 1.17142318  0.89156763 -0.27284907],0.0,0.0,1.0,0.0,0.0,0.0,0.0,0.0,0.0,0.0,0.0,0.0,0.0,0.0,0.0
0.11500000000000009,12.841781231706776,[ 1.17077379  0.89094919 -0.27417596],0.0,0.0,1.0,0.0,0.0,0.0,0.0,0.0,0.0,0.0,0.0,0.0,0.0,0.0,0.0
0.11600000000000009,12.805907427483522,[ 1.1699806   0.89022473 -0.27548788],0.0,0.0,1.0,0.0,0.0,0.0,0.0,0.0,0.0,0.0,0.0,0.0,0.0,0.0,0.0
0.11700000000000009,12.770341636072736,[ 1.169046    0.88939611 -0.27678475],0.0,0.0,1.0,0.0,0.0,0.0,0.0,0.0,0.0,0.0,0.0,0.0,0.0,0.0,0.0
0.11800000000000009,12.735081330987434,[ 1.16797236  0.88846521 -0.27806646],0.0,0.0,1.0,0.0,0.0,0.0,0.0,0.0,0.0,0.0,0.0,0.0,0.0,0.0,0.0
0.11900000000000009,12.700124007831683,[ 1.16676205  0.88743387 -0.27933293],0.0,0.0,1.0,0.0,0.0,0.0,0.0,0.0,0.0,0.0,0.0,0.0,0.0,0.0,0.0
0.12000000000000009,12.665467184040109,[ 1.16541742  0.88630392 -0.28058408],0.0,0.0,1.0,0.0,0.0,0.0,0.0,0.0,0.0,0.0,0.0,0.0,0.0,0.0,0.0
0.1210000000000001,12.631108398621077,[ 1.16394085  0.8850772  -0.28181981],0.0,0.0,1.0,0.0,0.0,0.0,0.0,0.0,0.0,0.0,0.0,0.0,0.0,0.0,0.0
0.1220000000000001,12.59704521190347,[ 1.16233466  0.88375554 -0.28304006],0.0,0.0,1.0,0.0,0.0,0.0,0.0,0.0,0.0,0.0,0.0,0.0,0.0,0.0,0.0
0.1230000000000001,12.563275205287136,[ 1.1606012   0.88234073 -0.28424473],0.0,0.0,1.0,0.0,0.0,0.0,0.0,0.0,0.0,0.0,0.0,0.0,0.0,0.0,0.0
0.1240000000000001,12.529795980996974,[ 1.15874279  0.88083458 -0.28543377],0.0,0.0,1.0,0.0,0.0,0.0,0.0,0.0,0.0,0.0,0.0,0.0,0.0,0.0,0.0
0.12500000000000008,12.496605161840659,[ 1.15676175  0.87923889 -0.2866071 ],0.0,0.0,1.0,0.0,0.0,0.0,0.0,0.0,0.0,0.0,0.0,0.0,0.0,0.0,0.0
0.12600000000000008,12.463700390970022,[ 1.15466039  0.87755543 -0.28776465],0.0,0.0,1.0,0.0,0.0,0.0,0.0,0.0,0.0,0.0,0.0,0.0,0.0,0.0,0.0
0.12700000000000009,12.431079331646028,[ 1.152441    0.87578596 -0.28890637],0.0,0.0,1.0,0.0,0.0,0.0,0.0,0.0,0.0,0.0,0.0,0.0,0.0,0.0,0.0
0.12800000000000009,12.398739667007405,[ 1.15010586  0.87393224 -0.29003219],0.0,0.0,1.0,0.0,0.0,0.0,0.0,0.0,0.0,0.0,0.0,0.0,0.0,0.0,0.0
0.1290000000000001,12.366679099842834,[ 1.14765725  0.87199602 -0.29114207],0.0,0.0,1.0,0.0,0.0,0.0,0.0,0.0,0.0,0.0,0.0,0.0,0.0,0.0,0.0
0.1300000000000001,12.334895352366757,[ 1.14509742  0.86997902 -0.29223596],0.0,0.0,1.0,0.0,0.0,0.0,0.0,0.0,0.0,0.0,0.0,0.0,0.0,0.0,0.0
0.1310000000000001,12.30338616599872,[ 1.14242862  0.86788296 -0.2933138 ],0.0,0.0,1.0,0.0,0.0,0.0,0.0,0.0,0.0,0.0,0.0,0.0,0.0,0.0,0.0
0.1320000000000001,12.272149301146245,[ 1.13965307  0.86570954 -0.29437557],0.0,0.0,1.0,0.0,0.0,0.0,0.0,0.0,0.0,0.0,0.0,0.0,0.0,0.0,0.0
0.1330000000000001,12.241182536991232,[ 1.136773    0.86346045 -0.29542121],0.0,0.0,1.0,0.0,0.0,0.0,0.0,0.0,0.0,0.0,0.0,0.0,0.0,0.0,0.0
0.1340000000000001,12.210483671279821,[ 1.13379059  0.86113737 -0.29645071],0.0,0.0,1.0,0.0,0.0,0.0,0.0,0.0,0.0,0.0,0.0,0.0,0.0,0.0,0.0
0.1350000000000001,12.180050520115707,[ 1.13070805  0.85874195 -0.29746404],0.0,0.0,1.0,0.0,0.0,0.0,0.0,0.0,0.0,0.0,0.0,0.0,0.0,0.0,0.0
0.1360000000000001,12.149880917756864,[ 1.12752753  0.85627585 -0.29846116],0.0,0.0,1.0,0.0,0.0,0.0,0.0,0.0,0.0,0.0,0.0,0.0,0.0,0.0,0.0
0.1370000000000001,12.119972716415662,[ 1.12425119  0.8537407  -0.29944207],0.0,0.0,1.0,0.0,0.0,0.0,0.0,0.0,0.0,0.0,0.0,0.0,0.0,0.0,0.0
0.1380000000000001,12.090323786062298,[ 1.12088116  0.85113811 -0.30040675],0.0,0.0,1.0,0.0,0.0,0.0,0.0,0.0,0.0,0.0,0.0,0.0,0.0,0.0,0.0
0.1390000000000001,12.060932014231563,[ 1.11741958  0.84846969 -0.30135519],0.0,0.0,1.0,0.0,0.0,0.0,0.0,0.0,0.0,0.0,0.0,0.0,0.0,0.0,0.0
0.1400000000000001,12.031795305832853,[ 1.11386854  0.84573703 -0.30228739],0.0,0.0,1.0,0.0,0.0,0.0,0.0,0.0,0.0,0.0,0.0,0.0,0.0,0.0,0.0
0.1410000000000001,12.002911582963403,[ 1.11023012  0.84294169 -0.30320334],0.0,0.0,1.0,0.0,0.0,0.0,0.0,0.0,0.0,0.0,0.0,0.0,0.0,0.0,0.0
0.1420000000000001,11.97427878472471,[ 1.1065064   0.84008524 -0.30410305],0.0,0.0,1.0,0.0,0.0,0.0,0.0,0.0,0.0,0.0,0.0,0.0,0.0,0.0,0.0
0.1430000000000001,11.945894867042092,[ 1.10269943  0.83716921 -0.30498652],0.0,0.0,1.0,0.0,0.0,0.0,0.0,0.0,0.0,0.0,0.0,0.0,0.0,0.0,0.0
0.1440000000000001,11.91775780248733,[ 1.09881124  0.83419513 -0.30585378],0.0,0.0,1.0,0.0,0.0,0.0,0.0,0.0,0.0,0.0,0.0,0.0,0.0,0.0,0.0
0.1450000000000001,11.889865580104367,[ 1.09484384  0.83116452 -0.30670484],0.0,0.0,1.0,0.0,0.0,0.0,0.0,0.0,0.0,0.0,0.0,0.0,0.0,0.0,0.0
0.1460000000000001,11.862216205238017,[ 1.09079923  0.82807886 -0.30753972],0.0,0.0,1.0,0.0,0.0,0.0,0.0,0.0,0.0,0.0,0.0,0.0,0.0,0.0,0.0
0.1470000000000001,11.834807699365605,[ 1.08667938  0.82493963 -0.30835845],0.0,0.0,1.0,0.0,0.0,0.0,0.0,0.0,0.0,0.0,0.0,0.0,0.0,0.0,0.0
0.1480000000000001,11.807638099931538,[ 1.08248626  0.8217483  -0.30916105],0.0,0.0,1.0,0.0,0.0,0.0,0.0,0.0,0.0,0.0,0.0,0.0,0.0,0.0,0.0
0.1490000000000001,11.780705460184725,[ 1.07822179  0.81850631 -0.30994757],0.0,0.0,1.0,0.0,0.0,0.0,0.0,0.0,0.0,0.0,0.0,0.0,0.0,0.0,0.0
0.1500000000000001,11.754007849018821,[ 1.07388791  0.81521508 -0.31071804],0.0,0.0,1.0,0.0,0.0,0.0,0.0,0.0,0.0,0.0,0.0,0.0,0.0,0.0,0.0
0.1510000000000001,11.72754335081521,[ 1.0694865   0.81187603 -0.31147251],0.0,0.0,1.0,0.0,0.0,0.0,0.0,0.0,0.0,0.0,0.0,0.0,0.0,0.0,0.0
0.1520000000000001,11.70131006528874,[ 1.06501945  0.80849056 -0.31221102],0.0,0.0,1.0,0.0,0.0,0.0,0.0,0.0,0.0,0.0,0.0,0.0,0.0,0.0,0.0
0.1530000000000001,11.675306107336084,[ 1.06048861  0.80506004 -0.31293362],0.0,0.0,1.0,0.0,0.0,0.0,0.0,0.0,0.0,0.0,0.0,0.0,0.0,0.0,0.0
0.1540000000000001,11.649529606886762,[ 1.05589583  0.80158584 -0.31364038],0.0,0.0,1.0,0.0,0.0,0.0,0.0,0.0,0.0,0.0,0.0,0.0,0.0,0.0,0.0
0.1550000000000001,11.623978708756688,[ 1.05124293  0.79806931 -0.31433134],0.0,0.0,1.0,0.0,0.0,0.0,0.0,0.0,0.0,0.0,0.0,0.0,0.0,0.0,0.0
0.1560000000000001,11.598651572504268,[ 1.0465317   0.79451176 -0.31500658],0.0,0.0,1.0,0.0,0.0,0.0,0.0,0.0,0.0,0.0,0.0,0.0,0.0,0.0,0.0
0.1570000000000001,11.573546372288959,[ 1.04176392  0.79091453 -0.31566616],0.0,0.0,1.0,0.0,0.0,0.0,0.0,0.0,0.0,0.0,0.0,0.0,0.0,0.0,0.0
0.1580000000000001,11.548661296732245,[ 1.03694135  0.7872789  -0.31631015],0.0,0.0,1.0,0.0,0.0,0.0,0.0,0.0,0.0,0.0,0.0,0.0,0.0,0.0,0.0
0.1590000000000001,11.523994548780989,[ 1.03206573  0.78360615 -0.31693862],0.0,0.0,1.0,0.0,0.0,0.0,0.0,0.0,0.0,0.0,0.0,0.0,0.0,0.0,0.0
0.16000000000000011,11.49954434557311,[ 1.02713878  0.77989754 -0.31755166],0.0,0.0,1.0,0.0,0.0,0.0,0.0,0.0,0.0,0.0,0.0,0.0,0.0,0.0,0.0
0.16100000000000012,11.475308918305544,[ 1.02216219  0.77615433 -0.31814934],0.0,0.0,1.0,0.0,0.0,0.0,0.0,0.0,0.0,0.0,0.0,0.0,0.0,0.0,0.0
0.16200000000000012,11.451286512104415,[ 1.01713764  0.77237774 -0.31873176],0.0,0.0,1.0,0.0,0.0,0.0,0.0,0.0,0.0,0.0,0.0,0.0,0.0,0.0,0.0
0.16300000000000012,11.427475385897406,[ 1.01206678  0.76856899 -0.31929899],0.0,0.0,1.0,0.0,0.0,0.0,0.0,0.0,0.0,0.0,0.0,0.0,0.0,0.0,0.0
0.16400000000000012,11.403873812288257,[ 1.00695125  0.76472926 -0.31985113],0.0,0.0,1.0,0.0,0.0,0.0,0.0,0.0,0.0,0.0,0.0,0.0,0.0,0.0,0.0
0.16500000000000012,11.380480077433338,[ 1.00179267  0.76085975 -0.32038828],0.0,0.0,1.0,0.0,0.0,0.0,0.0,0.0,0.0,0.0,0.0,0.0,0.0,0.0,0.0
0.16600000000000012,11.357292480920293,[ 0.99659262  0.75696162 -0.32091053],0.0,0.0,1.0,0.0,0.0,0.0,0.0,0.0,0.0,0.0,0.0,0.0,0.0,0.0,0.0
0.16700000000000012,11.334309335648639,[ 0.99135268  0.753036   -0.32141798],0.0,0.0,1.0,0.0,0.0,0.0,0.0,0.0,0.0,0.0,0.0,0.0,0.0,0.0,0.0
0.16800000000000012,11.311528967712349,[ 0.9860744   0.74908405 -0.32191074],0.0,0.0,1.0,0.0,0.0,0.0,0.0,0.0,0.0,0.0,0.0,0.0,0.0,0.0,0.0
0.16900000000000012,11.288949716284328,[ 0.98075932  0.74510685 -0.32238891],0.0,0.0,1.0,0.0,0.0,0.0,0.0,0.0,0.0,0.0,0.0,0.0,0.0,0.0,0.0
0.17000000000000012,11.266569933502735,[ 0.97540893  0.74110553 -0.32285261],0.0,0.0,1.0,0.0,0.0,0.0,0.0,0.0,0.0,0.0,0.0,0.0,0.0,0.0,0.0
0.17100000000000012,11.244387984359154,[ 0.97002475  0.73708115 -0.32330194],0.0,0.0,1.0,0.0,0.0,0.0,0.0,0.0,0.0,0.0,0.0,0.0,0.0,0.0,0.0
0.17200000000000013,11.222402246588501,[ 0.96460822  0.73303478 -0.32373701],0.0,0.0,1.0,0.0,0.0,0.0,0.0,0.0,0.0,0.0,0.0,0.0,0.0,0.0,0.0
0.17300000000000013,11.200611110560697,[ 0.95916081  0.72896748 -0.32415795],0.0,0.0,1.0,0.0,0.0,0.0,0.0,0.0,0.0,0.0,0.0,0.0,0.0,0.0,0.0
0.17400000000000013,11.179012979174008,[ 0.95368394  0.72488028 -0.32456488],0.0,0.0,1.0,0.0,0.0,0.0,0.0,0.0,0.0,0.0,0.0,0.0,0.0,0.0,0.0
0.17500000000000013,11.157606267750051,[ 0.94817902  0.72077419 -0.32495791],0.0,0.0,1.0,0.0,0.0,0.0,0.0,0.0,0.0,0.0,0.0,0.0,0.0,0.0,0.0
0.17600000000000013,11.136389403930389,[ 0.94264743  0.71665021 -0.32533717],0.0,0.0,1.0,0.0,0.0,0.0,0.0,0.0,0.0,0.0,0.0,0.0,0.0,0.0,0.0
0.17700000000000013,11.115360827574705,[ 0.93709055  0.71250934 -0.32570279],0.0,0.0,1.0,0.0,0.0,0.0,0.0,0.0,0.0,0.0,0.0,0.0,0.0,0.0,0.0
0.17800000000000013,11.094518990660514,[ 0.93150973  0.70835254 -0.32605488],0.0,0.0,1.0,0.0,0.0,0.0,0.0,0.0,0.0,0.0,0.0,0.0,0.0,0.0,0.0
0.17900000000000013,11.073862357184355,[ 0.92590628  0.70418077 -0.32639359],0.0,0.0,1.0,0.0,0.0,0.0,0.0,0.0,0.0,0.0,0.0,0.0,0.0,0.0,0.0
0.18000000000000013,11.053389403064426,[ 0.92028151  0.69999497 -0.32671905],0.0,0.0,1.0,0.0,0.0,0.0,0.0,0.0,0.0,0.0,0.0,0.0,0.0,0.0,0.0
0.18100000000000013,11.033098616044667,[ 0.91463672  0.69579605 -0.32703137],0.0,0.0,1.0,0.0,0.0,0.0,0.0,0.0,0.0,0.0,0.0,0.0,0.0,0.0,0.0
0.18200000000000013,11.012988495600185,[ 0.90897317  0.69158494 -0.32733071],0.0,0.0,1.0,0.0,0.0,0.0,0.0,0.0,0.0,0.0,0.0,0.0,0.0,0.0,0.0
0.18300000000000013,10.993057552844059,[ 0.90329211  0.68736252 -0.3276172 ],0.0,0.0,1.0,0.0,0.0,0.0,0.0,0.0,0.0,0.0,0.0,0.0,0.0,0.0,0.0
0.18400000000000014,10.973304310435424,[ 0.89759477  0.68312967 -0.32789097],0.0,0.0,1.0,0.0,0.0,0.0,0.0,0.0,0.0,0.0,0.0,0.0,0.0,0.0,0.0
0.18500000000000014,10.953727302488849,[ 0.89188235  0.67888726 -0.32815217],0.0,0.0,1.0,0.0,0.0,0.0,0.0,0.0,0.0,0.0,0.0,0.0,0.0,0.0,0.0
0.18600000000000014,10.934325074484956,[ 0.88615604  0.67463613 -0.32840093],0.0,0.0,1.0,0.0,0.0,0.0,0.0,0.0,0.0,0.0,0.0,0.0,0.0,0.0,0.0
0.18700000000000014,10.915096183182236,[ 0.88041701  0.67037712 -0.3286374 ],0.0,0.0,1.0,0.0,0.0,0.0,0.0,0.0,0.0,0.0,0.0,0.0,0.0,0.0,0.0
0.18800000000000014,10.896039196530056,[ 0.87466642  0.66611104 -0.32886172],0.0,0.0,1.0,0.0,0.0,0.0,0.0,0.0,0.0,0.0,0.0,0.0,0.0,0.0,0.0
0.18900000000000014,10.877152693582806,[ 0.86890539  0.66183871 -0.32907403],0.0,0.0,1.0,0.0,0.0,0.0,0.0,0.0,0.0,0.0,0.0,0.0,0.0,0.0,0.0
0.19000000000000014,10.858435264415151,[ 0.86313504  0.65756091 -0.32927448],0.0,0.0,1.0,0.0,0.0,0.0,0.0,0.0,0.0,0.0,0.0,0.0,0.0,0.0,0.0
0.19100000000000014,10.839885510038402,[ 0.85735646  0.65327842 -0.32946322],0.0,0.0,1.0,0.0,0.0,0.0,0.0,0.0,0.0,0.0,0.0,0.0,0.0,0.0,0.0
0.19200000000000014,10.821502042317887,[ 0.85157072  0.648992   -0.32964038],0.0,0.0,1.0,0.0,0.0,0.0,0.0,0.0,0.0,0.0,0.0,0.0,0.0,0.0,0.0
0.19300000000000014,10.803283483891418,[ 0.84577889  0.6447024  -0.32980613],0.0,0.0,1.0,0.0,0.0,0.0,0.0,0.0,0.0,0.0,0.0,0.0,0.0,0.0,0.0
0.19400000000000014,10.7852284680887,[ 0.83998199  0.64041035 -0.3299606 ],0.0,0.0,1.0,0.0,0.0,0.0,0.0,0.0,0.0,0.0,0.0,0.0,0.0,0.0,0.0
0.19500000000000015,10.767335638851742,[ 0.83418105  0.63611657 -0.33010394],0.0,0.0,1.0,0.0,0.0,0.0,0.0,0.0,0.0,0.0,0.0,0.0,0.0,0.0,0.0
0.19600000000000015,10.749603650656212,[ 0.82837707  0.63182178 -0.33023631],0.0,0.0,1.0,0.0,0.0,0.0,0.0,0.0,0.0,0.0,0.0,0.0,0.0,0.0,0.0
0.19700000000000015,10.732031168433707,[ 0.82257103  0.62752666 -0.33035785],0.0,0.0,1.0,0.0,0.0,0.0,0.0,0.0,0.0,0.0,0.0,0.0,0.0,0.0,0.0
0.19800000000000015,10.714616867494925,[ 0.8167639   0.62323189 -0.33046872],0.0,0.0,1.0,0.0,0.0,0.0,0.0,0.0,0.0,0.0,0.0,0.0,0.0,0.0,0.0
0.19900000000000015,10.6973594334537,[ 0.81095662  0.61893815 -0.33056906],0.0,0.0,1.0,0.0,0.0,0.0,0.0,0.0,0.0,0.0,0.0,0.0,0.0,0.0,0.0
0.20000000000000015,10.680257562151896,[ 0.80515013  0.61464607 -0.33065903],0.0,0.0,1.0,0.0,0.0,0.0,0.0,0.0,0.0,0.0,0.0,0.0,0.0,0.0,0.0
0.20100000000000015,10.663309959585115,[ 0.79934534  0.61035632 -0.33073877],0.0,0.0,1.0,0.0,0.0,0.0,0.0,0.0,0.0,0.0,0.0,0.0,0.0,0.0,0.0
0.20200000000000015,10.646515341829218,[ 0.79354313  0.6060695  -0.33080844],0.0,0.0,1.0,0.0,0.0,0.0,0.0,0.0,0.0,0.0,0.0,0.0,0.0,0.0,0.0
0.20300000000000015,10.629872434967615,[ 0.7877444   0.60178624 -0.33086819],0.0,0.0,1.0,0.0,0.0,0.0,0.0,0.0,0.0,0.0,0.0,0.0,0.0,0.0,0.0
0.20400000000000015,10.61337997501932,[ 0.78195001  0.59750715 -0.33091816],0.0,0.0,1.0,0.0,0.0,0.0,0.0,0.0,0.0,0.0,0.0,0.0,0.0,0.0,0.0
0.20500000000000015,10.597036707867753,[ 0.77616078  0.5932328  -0.33095852],0.0,0.0,1.0,0.0,0.0,0.0,0.0,0.0,0.0,0.0,0.0,0.0,0.0,0.0,0.0
0.20600000000000016,10.580841389190242,[ 0.77037757  0.58896378 -0.3309894 ],0.0,0.0,1.0,0.0,0.0,0.0,0.0,0.0,0.0,0.0,0.0,0.0,0.0,0.0,0.0
0.20700000000000016,10.564792784388242,[ 0.76460116  0.58470066 -0.33101097],0.0,0.0,1.0,0.0,0.0,0.0,0.0,0.0,0.0,0.0,0.0,0.0,0.0,0.0,0.0
0.20800000000000016,10.548889668518227,[ 0.75883237  0.58044399 -0.33102337],0.0,0.0,1.0,0.0,0.0,0.0,0.0,0.0,0.0,0.0,0.0,0.0,0.0,0.0,0.0
0.20900000000000016,10.533130826223239,[ 0.75307197  0.5761943  -0.33102674],0.0,0.0,1.0,0.0,0.0,0.0,0.0,0.0,0.0,0.0,0.0,0.0,0.0,0.0,0.0
0.21000000000000016,10.517515051665095,[ 0.74732072  0.57195213 -0.33102125],0.0,0.0,1.0,0.0,0.0,0.0,0.0,0.0,0.0,0.0,0.0,0.0,0.0,0.0,0.0
0.21100000000000016,10.502041148457208,[ 0.74157936  0.56771801 -0.33100704],0.0,0.0,1.0,0.0,0.0,0.0,0.0,0.0,0.0,0.0,0.0,0.0,0.0,0.0,0.0
0.21200000000000016,10.486707929598026,[ 0.73584864  0.56349243 -0.33098426],0.0,0.0,1.0,0.0,0.0,0.0,0.0,0.0,0.0,0.0,0.0,0.0,0.0,0.0,0.0
0.21300000000000016,10.47151421740507,[ 0.73012926  0.55927589 -0.33095306],0.0,0.0,1.0,0.0,0.0,0.0,0.0,0.0,0.0,0.0,0.0,0.0,0.0,0.0,0.0
0.21400000000000016,10.45645884344954,[ 0.72442192  0.55506887 -0.33091358],0.0,0.0,1.0,0.0,0.0,0.0,0.0,0.0,0.0,0.0,0.0,0.0,0.0,0.0,0.0
0.21500000000000016,10.441540648491486,[ 0.71872732  0.55087186 -0.33086598],0.0,0.0,1.0,0.0,0.0,0.0,0.0,0.0,0.0,0.0,0.0,0.0,0.0,0.0,0.0
0.21600000000000016,10.426758482415549,[ 0.71304612  0.5466853  -0.33081039],0.0,0.0,1.0,0.0,0.0,0.0,0.0,0.0,0.0,0.0,0.0,0.0,0.0,0.0,0.0
0.21700000000000016,10.412111204167207,[ 0.70737897  0.54250966 -0.33074697],0.0,0.0,1.0,0.0,0.0,0.0,0.0,0.0,0.0,0.0,0.0,0.0,0.0,0.0,0.0
0.21800000000000017,10.397597681689565,[ 0.70172652  0.53834537 -0.33067586],0.0,0.0,1.0,0.0,0.0,0.0,0.0,0.0,0.0,0.0,0.0,0.0,0.0,0.0,0.0
0.21900000000000017,10.383216791860649,[ 0.69608938  0.53419287 -0.3305972 ],0.0,0.0,1.0,0.0,0.0,0.0,0.0,0.0,0.0,0.0,0.0,0.0,0.0,0.0,0.0
0.22000000000000017,10.368967420431192,[ 0.69046819  0.53005258 -0.33051114],0.0,0.0,1.0,0.0,0.0,0.0,0.0,0.0,0.0,0.0,0.0,0.0,0.0,0.0,0.0
0.22100000000000017,10.354848461962902,[ 0.68486352  0.52592489 -0.33041783],0.0,0.0,1.0,0.0,0.0,0.0,0.0,0.0,0.0,0.0,0.0,0.0,0.0,0.0,0.0
0.22200000000000017,10.340858819767213,[ 0.67927597  0.52181023 -0.33031739],0.0,0.0,1.0,0.0,0.0,0.0,0.0,0.0,0.0,0.0,0.0,0.0,0.0,0.0,0.0
0.22300000000000017,10.32699740584449,[ 0.6737061   0.51770897 -0.33020998],0.0,0.0,1.0,0.0,0.0,0.0,0.0,0.0,0.0,0.0,0.0,0.0,0.0,0.0,0.0
0.22400000000000017,10.313263140823679,[ 0.66815447  0.51362149 -0.33009574],0.0,0.0,1.0,0.0,0.0,0.0,0.0,0.0,0.0,0.0,0.0,0.0,0.0,0.0,0.0
0.22500000000000017,10.2996549539024,[ 0.66262162  0.50954817 -0.32997479],0.0,0.0,1.0,0.0,0.0,0.0,0.0,0.0,0.0,0.0,0.0,0.0,0.0,0.0,0.0
0.22600000000000017,10.28617178278748,[ 0.65710807  0.50548936 -0.32984729],0.0,0.0,1.0,0.0,0.0,0.0,0.0,0.0,0.0,0.0,0.0,0.0,0.0,0.0,0.0
0.22700000000000017,10.272812573635893,[ 0.65161436  0.50144542 -0.32971336],0.0,0.0,1.0,0.0,0.0,0.0,0.0,0.0,0.0,0.0,0.0,0.0,0.0,0.0,0.0
0.22800000000000017,10.2595762809961,[ 0.64614097  0.49741668 -0.32957315],0.0,0.0,1.0,0.0,0.0,0.0,0.0,0.0,0.0,0.0,0.0,0.0,0.0,0.0,0.0
0.22900000000000018,10.246461867749819,[ 0.6406884   0.49340349 -0.32942679],0.0,0.0,1.0,0.0,0.0,0.0,0.0,0.0,0.0,0.0,0.0,0.0,0.0,0.0,0.0
0.23000000000000018,10.233468305054162,[ 0.63525713  0.48940617 -0.32927441],0.0,0.0,1.0,0.0,0.0,0.0,0.0,0.0,0.0,0.0,0.0,0.0,0.0,0.0,0.0
0.23100000000000018,10.220594572284165,[ 0.62984761  0.48542502 -0.32911615],0.0,0.0,1.0,0.0,0.0,0.0,0.0,0.0,0.0,0.0,0.0,0.0,0.0,0.0,0.0
0.23200000000000018,10.207839656975695,[ 0.6244603   0.48146036 -0.32895213],0.0,0.0,1.0,0.0,0.0,0.0,0.0,0.0,0.0,0.0,0.0,0.0,0.0,0.0,0.0
0.23300000000000018,10.19520255476872,[ 0.61909564  0.47751248 -0.32878249],0.0,0.0,1.0,0.0,0.0,0.0,0.0,0.0,0.0,0.0,0.0,0.0,0.0,0.0,0.0
0.23400000000000018,10.182682269350945,[ 0.61375406  0.47358167 -0.32860735],0.0,0.0,1.0,0.0,0.0,0.0,0.0,0.0,0.0,0.0,0.0,0.0,0.0,0.0,0.0
0.23500000000000018,10.1702778124018,[ 0.60843598  0.46966821 -0.32842685],0.0,0.0,1.0,0.0,0.0,0.0,0.0,0.0,0.0,0.0,0.0,0.0,0.0,0.0,0.0
0.23600000000000018,10.157988203536767,[ 0.60314179  0.46577238 -0.32824111],0.0,0.0,1.0,0.0,0.0,0.0,0.0,0.0,0.0,0.0,0.0,0.0,0.0,0.0,0.0
0.23700000000000018,10.145812470252068,[ 0.59787189  0.46189443 -0.32805025],0.0,0.0,1.0,0.0,0.0,0.0,0.0,0.0,0.0,0.0,0.0,0.0,0.0,0.0,0.0
0.23800000000000018,10.133749647869656,[ 0.59262666  0.45803462 -0.32785441],0.0,0.0,1.0,0.0,0.0,0.0,0.0,0.0,0.0,0.0,0.0,0.0,0.0,0.0,0.0
0.23900000000000018,10.12179877948256,[ 0.58740647  0.45419321 -0.32765369],0.0,0.0,1.0,0.0,0.0,0.0,0.0,0.0,0.0,0.0,0.0,0.0,0.0,0.0,0.0
0.24000000000000019,10.109958915900547,[ 0.58221168  0.45037042 -0.32744823],0.0,0.0,1.0,0.0,0.0,0.0,0.0,0.0,0.0,0.0,0.0,0.0,0.0,0.0,0.0
0.2410000000000002,10.09822911559609,[ 0.57704263  0.4465665  -0.32723813],0.0,0.0,1.0,0.0,0.0,0.0,0.0,0.0,0.0,0.0,0.0,0.0,0.0,0.0,0.0
0.2420000000000002,10.08660844465066,[ 0.57189967  0.44278166 -0.32702354],0.0,0.0,1.0,0.0,0.0,0.0,0.0,0.0,0.0,0.0,0.0,0.0,0.0,0.0,0.0
0.2430000000000002,10.075095976701306,[ 0.56678311  0.43901612 -0.32680455],0.0,0.0,1.0,0.0,0.0,0.0,0.0,0.0,0.0,0.0,0.0,0.0,0.0,0.0,0.0
0.2440000000000002,10.063690792887575,[ 0.56169328  0.4352701  -0.32658128],0.0,0.0,1.0,0.0,0.0,0.0,0.0,0.0,0.0,0.0,0.0,0.0,0.0,0.0,0.0
0.2450000000000002,10.052391981798685,[ 0.55663048  0.4315438  -0.32635385],0.0,0.0,1.0,0.0,0.0,0.0,0.0,0.0,0.0,0.0,0.0,0.0,0.0,0.0,0.0
0.2460000000000002,10.041198639421015,[ 0.551595    0.4278374  -0.32612238],0.0,0.0,1.0,0.0,0.0,0.0,0.0,0.0,0.0,0.0,0.0,0.0,0.0,0.0,0.0
0.2470000000000002,10.030109869085887,[ 0.54658712  0.4241511  -0.32588697],0.0,0.0,1.0,0.0,0.0,0.0,0.0,0.0,0.0,0.0,0.0,0.0,0.0,0.0,0.0
0.2480000000000002,10.019124781417617,[ 0.54160713  0.42048509 -0.32564773],0.0,0.0,1.0,0.0,0.0,0.0,0.0,0.0,0.0,0.0,0.0,0.0,0.0,0.0,0.0
0.2490000000000002,10.008242494281864,[ 0.53665529  0.41683952 -0.32540478],0.0,0.0,1.0,0.0,0.0,0.0,0.0,0.0,0.0,0.0,0.0,0.0,0.0,0.0,0.0
0.25000000000000017,9.997462132734244,[ 0.53173186  0.41321459 -0.32515822],0.0,0.0,1.0,0.0,0.0,0.0,0.0,0.0,0.0,0.0,0.0,0.0,0.0,0.0,0.0
0.25100000000000017,9.986782828969229,[ 0.52683707  0.40961043 -0.32490815],0.0,0.0,1.0,0.0,0.0,0.0,0.0,0.0,0.0,0.0,0.0,0.0,0.0,0.0,0.0
0.25200000000000017,9.976203722269306,[ 0.52197117  0.40602721 -0.32465469],0.0,0.0,1.0,0.0,0.0,0.0,0.0,0.0,0.0,0.0,0.0,0.0,0.0,0.0,0.0
0.25300000000000017,9.965723958954419,[ 0.51713438  0.40246509 -0.32439793],0.0,0.0,1.0,0.0,0.0,0.0,0.0,0.0,0.0,0.0,0.0,0.0,0.0,0.0,0.0
0.25400000000000017,9.955342692331657,[ 0.51232692  0.39892419 -0.32413797],0.0,0.0,1.0,0.0,0.0,0.0,0.0,0.0,0.0,0.0,0.0,0.0,0.0,0.0,0.0
0.25500000000000017,9.945059082645233,[ 0.50754901  0.39540465 -0.32387493],0.0,0.0,1.0,0.0,0.0,0.0,0.0,0.0,0.0,0.0,0.0,0.0,0.0,0.0,0.0
0.25600000000000017,9.93487229702669,[ 0.50280084  0.39190662 -0.32360889],0.0,0.0,1.0,0.0,0.0,0.0,0.0,0.0,0.0,0.0,0.0,0.0,0.0,0.0,0.0
0.2570000000000002,9.924781509445388,[ 0.4980826   0.3884302  -0.32333995],0.0,0.0,1.0,0.0,0.0,0.0,0.0,0.0,0.0,0.0,0.0,0.0,0.0,0.0,0.0
0.2580000000000002,9.914785900659245,[ 0.49339448  0.38497552 -0.32306821],0.0,0.0,1.0,0.0,0.0,0.0,0.0,0.0,0.0,0.0,0.0,0.0,0.0,0.0,0.0
0.2590000000000002,9.904884658165717,[ 0.48873665  0.38154269 -0.32279376],0.0,0.0,1.0,0.0,0.0,0.0,0.0,0.0,0.0,0.0,0.0,0.0,0.0,0.0,0.0
0.2600000000000002,9.895076976153048,[ 0.48410929  0.37813182 -0.3225167 ],0.0,0.0,1.0,0.0,0.0,0.0,0.0,0.0,0.0,0.0,0.0,0.0,0.0,0.0,0.0
0.2610000000000002,9.885362055451749,[ 0.47951254  0.37474301 -0.32223712],0.0,0.0,1.0,0.0,0.0,0.0,0.0,0.0,0.0,0.0,0.0,0.0,0.0,0.0,0.0
0.2620000000000002,9.875739103486357,[ 0.47494656  0.37137635 -0.32195511],0.0,0.0,1.0,0.0,0.0,0.0,0.0,0.0,0.0,0.0,0.0,0.0,0.0,0.0,0.0
0.2630000000000002,9.866207334227395,[ 0.4704115   0.36803194 -0.32167075],0.0,0.0,1.0,0.0,0.0,0.0,0.0,0.0,0.0,0.0,0.0,0.0,0.0,0.0,0.0
0.2640000000000002,9.856765968143618,[ 0.46590748  0.36470985 -0.32138414],0.0,0.0,1.0,0.0,0.0,0.0,0.0,0.0,0.0,0.0,0.0,0.0,0.0,0.0,0.0
0.2650000000000002,9.847414232154485,[ 0.46143464  0.36141018 -0.32109536],0.0,0.0,1.0,0.0,0.0,0.0,0.0,0.0,0.0,0.0,0.0,0.0,0.0,0.0,0.0
0.2660000000000002,9.83815135958286,[ 0.4569931   0.35813299 -0.32080449],0.0,0.0,1.0,0.0,0.0,0.0,0.0,0.0,0.0,0.0,0.0,0.0,0.0,0.0,0.0
0.2670000000000002,9.82897659010798,[ 0.45258296  0.35487836 -0.32051162],0.0,0.0,1.0,0.0,0.0,0.0,0.0,0.0,0.0,0.0,0.0,0.0,0.0,0.0,0.0
0.2680000000000002,9.819889169718648,[ 0.44820434  0.35164635 -0.32021684],0.0,0.0,1.0,0.0,0.0,0.0,0.0,0.0,0.0,0.0,0.0,0.0,0.0,0.0,0.0
0.2690000000000002,9.810888350666655,[ 0.44385734  0.34843702 -0.31992021],0.0,0.0,1.0,0.0,0.0,0.0,0.0,0.0,0.0,0.0,0.0,0.0,0.0,0.0,0.0
0.2700000000000002,9.801973391420464,[ 0.43954204  0.34525043 -0.31962182],0.0,0.0,1.0,0.0,0.0,0.0,0.0,0.0,0.0,0.0,0.0,0.0,0.0,0.0,0.0
0.2710000000000002,9.793143556619102,[ 0.43525854  0.34208662 -0.31932175],0.0,0.0,1.0,0.0,0.0,0.0,0.0,0.0,0.0,0.0,0.0,0.0,0.0,0.0,0.0
0.2720000000000002,9.78439811702631,[ 0.4310069   0.33894565 -0.31902007],0.0,0.0,1.0,0.0,0.0,0.0,0.0,0.0,0.0,0.0,0.0,0.0,0.0,0.0,0.0
0.2730000000000002,9.775736349484912,[ 0.42678721  0.33582755 -0.31871686],0.0,0.0,1.0,0.0,0.0,0.0,0.0,0.0,0.0,0.0,0.0,0.0,0.0,0.0,0.0
0.2740000000000002,9.767157536871434,[ 0.42259952  0.33273237 -0.31841219],0.0,0.0,1.0,0.0,0.0,0.0,0.0,0.0,0.0,0.0,0.0,0.0,0.0,0.0,0.0
0.2750000000000002,9.758660968050934,[ 0.41844389  0.32966013 -0.31810614],0.0,0.0,1.0,0.0,0.0,0.0,0.0,0.0,0.0,0.0,0.0,0.0,0.0,0.0,0.0
0.2760000000000002,9.750245937832089,[ 0.41432039  0.32661087 -0.31779876],0.0,0.0,1.0,0.0,0.0,0.0,0.0,0.0,0.0,0.0,0.0,0.0,0.0,0.0,0.0
0.2770000000000002,9.741911746922494,[ 0.41022905  0.32358461 -0.31749015],0.0,0.0,1.0,0.0,0.0,0.0,0.0,0.0,0.0,0.0,0.0,0.0,0.0,0.0,0.0
0.2780000000000002,9.733657701884196,[ 0.40616992  0.32058138 -0.31718035],0.0,0.0,1.0,0.0,0.0,0.0,0.0,0.0,0.0,0.0,0.0,0.0,0.0,0.0,0.0
0.2790000000000002,9.725483115089482,[ 0.40214302  0.31760118 -0.31686944],0.0,0.0,1.0,0.0,0.0,0.0,0.0,0.0,0.0,0.0,0.0,0.0,0.0,0.0,0.0
0.2800000000000002,9.717387304676853,[ 0.3981484   0.31464403 -0.31655749],0.0,0.0,1.0,0.0,0.0,0.0,0.0,0.0,0.0,0.0,0.0,0.0,0.0,0.0,0.0
0.2810000000000002,9.709369594507272,[ 0.39418607  0.31170994 -0.31624455],0.0,0.0,1.0,0.0,0.0,0.0,0.0,0.0,0.0,0.0,0.0,0.0,0.0,0.0,0.0
0.2820000000000002,9.70142931412062,[ 0.39025604  0.30879892 -0.3159307 ],0.0,0.0,1.0,0.0,0.0,0.0,0.0,0.0,0.0,0.0,0.0,0.0,0.0,0.0,0.0
0.2830000000000002,9.693565798692376,[ 0.38635834  0.30591097 -0.31561598],0.0,0.0,1.0,0.0,0.0,0.0,0.0,0.0,0.0,0.0,0.0,0.0,0.0,0.0,0.0
0.2840000000000002,9.685778388990542,[ 0.38249297  0.30304609 -0.31530047],0.0,0.0,1.0,0.0,0.0,0.0,0.0,0.0,0.0,0.0,0.0,0.0,0.0,0.0,0.0
0.2850000000000002,9.67806643133279,[ 0.37865993  0.30020427 -0.31498422],0.0,0.0,1.0,0.0,0.0,0.0,0.0,0.0,0.0,0.0,0.0,0.0,0.0,0.0,0.0
0.2860000000000002,9.67042927754383,[ 0.37485921  0.29738549 -0.3146673 ],0.0,0.0,1.0,0.0,0.0,0.0,0.0,0.0,0.0,0.0,0.0,0.0,0.0,0.0,0.0
0.2870000000000002,9.662866284913024,[ 0.37109081  0.29458977 -0.31434974],0.0,0.0,1.0,0.0,0.0,0.0,0.0,0.0,0.0,0.0,0.0,0.0,0.0,0.0,0.0
0.2880000000000002,9.65537681615221,[ 0.36735472  0.29181706 -0.31403162],0.0,0.0,1.0,0.0,0.0,0.0,0.0,0.0,0.0,0.0,0.0,0.0,0.0,0.0,0.0
0.2890000000000002,9.647960239353754,[ 0.36365091  0.28906736 -0.31371299],0.0,0.0,1.0,0.0,0.0,0.0,0.0,0.0,0.0,0.0,0.0,0.0,0.0,0.0,0.0
0.2900000000000002,9.640615927948863,[ 0.35997936  0.28634065 -0.31339389],0.0,0.0,1.0,0.0,0.0,0.0,0.0,0.0,0.0,0.0,0.0,0.0,0.0,0.0,0.0
0.2910000000000002,9.63334326066607,[ 0.35634005  0.2836369  -0.31307439],0.0,0.0,1.0,0.0,0.0,0.0,0.0,0.0,0.0,0.0,0.0,0.0,0.0,0.0,0.0
0.2920000000000002,9.626141621489996,[ 0.35273294  0.28095608 -0.31275452],0.0,0.0,1.0,0.0,0.0,0.0,0.0,0.0,0.0,0.0,0.0,0.0,0.0,0.0,0.0
0.2930000000000002,9.619010399620313,[ 0.34915799  0.27829816 -0.31243435],0.0,0.0,1.0,0.0,0.0,0.0,0.0,0.0,0.0,0.0,0.0,0.0,0.0,0.0,0.0
0.2940000000000002,9.611948989430951,[ 0.34561517  0.27566311 -0.31211392],0.0,0.0,1.0,0.0,0.0,0.0,0.0,0.0,0.0,0.0,0.0,0.0,0.0,0.0,0.0
0.2950000000000002,9.604956790429505,[ 0.34210443  0.27305089 -0.31179327],0.0,0.0,1.0,0.0,0.0,0.0,0.0,0.0,0.0,0.0,0.0,0.0,0.0,0.0,0.0
0.2960000000000002,9.598033207216911,[ 0.33862571  0.27046146 -0.31147246],0.0,0.0,1.0,0.0,0.0,0.0,0.0,0.0,0.0,0.0,0.0,0.0,0.0,0.0,0.0
0.2970000000000002,9.591177649447307,[ 0.33517897  0.26789478 -0.31115152],0.0,0.0,1.0,0.0,0.0,0.0,0.0,0.0,0.0,0.0,0.0,0.0,0.0,0.0,0.0
0.2980000000000002,9.58438953178815,[ 0.33176415  0.26535081 -0.31083051],0.0,0.0,1.0,0.0,0.0,0.0,0.0,0.0,0.0,0.0,0.0,0.0,0.0,0.0,0.0
0.2990000000000002,9.577668273880551,[ 0.32838117  0.26282949 -0.31050946],0.0,0.0,1.0,0.0,0.0,0.0,0.0,0.0,0.0,0.0,0.0,0.0,0.0,0.0,0.0
0.3000000000000002,9.571013300299837,[ 0.32502999  0.26033078 -0.31018841],0.0,0.0,1.0,0.0,0.0,0.0,0.0,0.0,0.0,0.0,0.0,0.0,0.0,0.0,0.0
0.3010000000000002,9.564424040516332,[ 0.32171053  0.25785463 -0.30986742],0.0,0.0,1.0,0.0,0.0,0.0,0.0,0.0,0.0,0.0,0.0,0.0,0.0,0.0,0.0
0.3020000000000002,9.557899928856381,[ 0.31842271  0.25540097 -0.30954651],0.0,0.0,1.0,0.0,0.0,0.0,0.0,0.0,0.0,0.0,0.0,0.0,0.0,0.0,0.0
0.3030000000000002,9.551440404463598,[ 0.31516646  0.25296976 -0.30922573],0.0,0.0,1.0,0.0,0.0,0.0,0.0,0.0,0.0,0.0,0.0,0.0,0.0,0.0,0.0
0.3040000000000002,9.545044911260321,[ 0.3119417   0.25056094 -0.30890511],0.0,0.0,1.0,0.0,0.0,0.0,0.0,0.0,0.0,0.0,0.0,0.0,0.0,0.0,0.0
0.3050000000000002,9.538712897909328,[ 0.30874834  0.24817443 -0.30858469],0.0,0.0,1.0,0.0,0.0,0.0,0.0,0.0,0.0,0.0,0.0,0.0,0.0,0.0,0.0
0.3060000000000002,9.532443817775746,[ 0.3055863   0.24581018 -0.3082645 ],0.0,0.0,1.0,0.0,0.0,0.0,0.0,0.0,0.0,0.0,0.0,0.0,0.0,0.0,0.0
0.3070000000000002,9.526237128889214,[ 0.30245549  0.24346813 -0.30794459],0.0,0.0,1.0,0.0,0.0,0.0,0.0,0.0,0.0,0.0,0.0,0.0,0.0,0.0,0.0
0.3080000000000002,9.520092293906252,[ 0.29935581  0.2411482  -0.30762498],0.0,0.0,1.0,0.0,0.0,0.0,0.0,0.0,0.0,0.0,0.0,0.0,0.0,0.0,0.0
0.3090000000000002,9.514008780072878,[ 0.29628717  0.23885032 -0.30730571],0.0,0.0,1.0,0.0,0.0,0.0,0.0,0.0,0.0,0.0,0.0,0.0,0.0,0.0,0.0
0.3100000000000002,9.507986059187424,[ 0.29324947  0.23657442 -0.30698681],0.0,0.0,1.0,0.0,0.0,0.0,0.0,0.0,0.0,0.0,0.0,0.0,0.0,0.0,0.0
0.3110000000000002,9.502023607563611,[ 0.2902426   0.23432044 -0.30666831],0.0,0.0,1.0,0.0,0.0,0.0,0.0,0.0,0.0,0.0,0.0,0.0,0.0,0.0,0.0
0.3120000000000002,9.496120905993827,[ 0.28726646  0.23208828 -0.30635024],0.0,0.0,1.0,0.0,0.0,0.0,0.0,0.0,0.0,0.0,0.0,0.0,0.0,0.0,0.0
0.3130000000000002,9.490277439712639,[ 0.28432094  0.22987788 -0.30603263],0.0,0.0,1.0,0.0,0.0,0.0,0.0,0.0,0.0,0.0,0.0,0.0,0.0,0.0,0.0
0.3140000000000002,9.48449269836053,[ 0.28140593  0.22768915 -0.3057155 ],0.0,0.0,1.0,0.0,0.0,0.0,0.0,0.0,0.0,0.0,0.0,0.0,0.0,0.0,0.0
0.3150000000000002,9.47876617594787,[ 0.27852132  0.22552201 -0.3053989 ],0.0,0.0,1.0,0.0,0.0,0.0,0.0,0.0,0.0,0.0,0.0,0.0,0.0,0.0,0.0
0.3160000000000002,9.4730973708191,[ 0.27566698  0.22337638 -0.30508283],0.0,0.0,1.0,0.0,0.0,0.0,0.0,0.0,0.0,0.0,0.0,0.0,0.0,0.0,0.0
0.3170000000000002,9.467485785617155,[ 0.2728428   0.22125218 -0.30476734],0.0,0.0,1.0,0.0,0.0,0.0,0.0,0.0,0.0,0.0,0.0,0.0,0.0,0.0,0.0
0.3180000000000002,9.461930927248105,[ 0.27004867  0.21914931 -0.30445244],0.0,0.0,1.0,0.0,0.0,0.0,0.0,0.0,0.0,0.0,0.0,0.0,0.0,0.0,0.0
0.31900000000000023,9.456432306846018,[ 0.26728444  0.2170677  -0.30413816],0.0,0.0,1.0,0.0,0.0,0.0,0.0,0.0,0.0,0.0,0.0,0.0,0.0,0.0,0.0
0.32000000000000023,9.45098943973807,[ 0.26455001  0.21500725 -0.30382452],0.0,0.0,1.0,0.0,0.0,0.0,0.0,0.0,0.0,0.0,0.0,0.0,0.0,0.0,0.0
0.32100000000000023,9.445601845409847,[ 0.26184524  0.21296786 -0.30351154],0.0,0.0,1.0,0.0,0.0,0.0,0.0,0.0,0.0,0.0,0.0,0.0,0.0,0.0,0.0
0.32200000000000023,9.4402690474709,[ 0.25916999  0.21094946 -0.30319925],0.0,0.0,1.0,0.0,0.0,0.0,0.0,0.0,0.0,0.0,0.0,0.0,0.0,0.0,0.0
0.32300000000000023,9.434990573620517,[ 0.25652414  0.20895193 -0.30288767],0.0,0.0,1.0,0.0,0.0,0.0,0.0,0.0,0.0,0.0,0.0,0.0,0.0,0.0,0.0
0.32400000000000023,9.42976595561371,[ 0.25390755  0.2069752  -0.30257681],0.0,0.0,1.0,0.0,0.0,0.0,0.0,0.0,0.0,0.0,0.0,0.0,0.0,0.0,0.0
0.32500000000000023,9.424594729227445,[ 0.25132008  0.20501916 -0.30226671],0.0,0.0,1.0,0.0,0.0,0.0,0.0,0.0,0.0,0.0,0.0,0.0,0.0,0.0,0.0
0.32600000000000023,9.419476434227073,[ 0.2487616   0.20308371 -0.30195737],0.0,0.0,1.0,0.0,0.0,0.0,0.0,0.0,0.0,0.0,0.0,0.0,0.0,0.0,0.0
0.32700000000000023,9.414410614333013,[ 0.24623197  0.20116876 -0.30164882],0.0,0.0,1.0,0.0,0.0,0.0,0.0,0.0,0.0,0.0,0.0,0.0,0.0,0.0,0.0
0.32800000000000024,9.409396817187629,[ 0.24373103  0.19927421 -0.30134107],0.0,0.0,1.0,0.0,0.0,0.0,0.0,0.0,0.0,0.0,0.0,0.0,0.0,0.0,0.0
0.32900000000000024,9.404434594322353,[ 0.24125865  0.19739995 -0.30103414],0.0,0.0,1.0,0.0,0.0,0.0,0.0,0.0,0.0,0.0,0.0,0.0,0.0,0.0,0.0
0.33000000000000024,9.399523501125028,[ 0.23881468  0.19554588 -0.30072805],0.0,0.0,1.0,0.0,0.0,0.0,0.0,0.0,0.0,0.0,0.0,0.0,0.0,0.0,0.0
0.33100000000000024,9.394663096807454,[ 0.23639897  0.1937119  -0.30042281],0.0,0.0,1.0,0.0,0.0,0.0,0.0,0.0,0.0,0.0,0.0,0.0,0.0,0.0,0.0
0.33200000000000024,9.389852944373185,[ 0.23401137  0.1918979  -0.30011844],0.0,0.0,1.0,0.0,0.0,0.0,0.0,0.0,0.0,0.0,0.0,0.0,0.0,0.0,0.0
0.33300000000000024,9.385092610585533,[ 0.23165174  0.19010378 -0.29981495],0.0,0.0,1.0,0.0,0.0,0.0,0.0,0.0,0.0,0.0,0.0,0.0,0.0,0.0,0.0
0.33400000000000024,9.380381665935783,[ 0.22931991  0.18832943 -0.29951235],0.0,0.0,1.0,0.0,0.0,0.0,0.0,0.0,0.0,0.0,0.0,0.0,0.0,0.0,0.0
0.33500000000000024,9.375719684611656,[ 0.22701573  0.18657475 -0.29921067],0.0,0.0,1.0,0.0,0.0,0.0,0.0,0.0,0.0,0.0,0.0,0.0,0.0,0.0,0.0
0.33600000000000024,9.371106244465974,[ 0.22473906  0.18483962 -0.29890991],0.0,0.0,1.0,0.0,0.0,0.0,0.0,0.0,0.0,0.0,0.0,0.0,0.0,0.0,0.0
0.33700000000000024,9.366540926985543,[ 0.22248972  0.18312394 -0.29861008],0.0,0.0,1.0,0.0,0.0,0.0,0.0,0.0,0.0,0.0,0.0,0.0,0.0,0.0,0.0
0.33800000000000024,9.36202331726027,[ 0.22026757  0.1814276  -0.2983112 ],0.0,0.0,1.0,0.0,0.0,0.0,0.0,0.0,0.0,0.0,0.0,0.0,0.0,0.0,0.0
0.33900000000000025,9.357553003952491,[ 0.21807244  0.17975048 -0.29801328],0.0,0.0,1.0,0.0,0.0,0.0,0.0,0.0,0.0,0.0,0.0,0.0,0.0,0.0,0.0
0.34000000000000025,9.353129579266517,[ 0.21590417  0.17809248 -0.29771632],0.0,0.0,1.0,0.0,0.0,0.0,0.0,0.0,0.0,0.0,0.0,0.0,0.0,0.0,0.0
0.34100000000000025,9.348752638918398,[ 0.2137626   0.17645347 -0.29742034],0.0,0.0,1.0,0.0,0.0,0.0,0.0,0.0,0.0,0.0,0.0,0.0,0.0,0.0,0.0
0.34200000000000025,9.344421782105915,[ 0.21164756  0.17483336 -0.29712535],0.0,0.0,1.0,0.0,0.0,0.0,0.0,0.0,0.0,0.0,0.0,0.0,0.0,0.0,0.0
0.34300000000000025,9.34013661147878,[ 0.2095589   0.17323202 -0.29683136],0.0,0.0,1.0,0.0,0.0,0.0,0.0,0.0,0.0,0.0,0.0,0.0,0.0,0.0,0.0
0.34400000000000025,9.33589673310905,[ 0.20749644  0.17164934 -0.29653837],0.0,0.0,1.0,0.0,0.0,0.0,0.0,0.0,0.0,0.0,0.0,0.0,0.0,0.0,0.0
0.34500000000000025,9.331701756461765,[ 0.20546003  0.1700852  -0.29624639],0.0,0.0,1.0,0.0,0.0,0.0,0.0,0.0,0.0,0.0,0.0,0.0,0.0,0.0,0.0
0.34600000000000025,9.3275512943658,[ 0.20344948  0.16853949 -0.29595543],0.0,0.0,1.0,0.0,0.0,0.0,0.0,0.0,0.0,0.0,0.0,0.0,0.0,0.0,0.0
0.34700000000000025,9.323444962984937,[ 0.20146464  0.16701209 -0.2956655 ],0.0,0.0,1.0,0.0,0.0,0.0,0.0,0.0,0.0,0.0,0.0,0.0,0.0,0.0,0.0
0.34800000000000025,9.319382381789133,[ 0.19950534  0.1655029  -0.29537661],0.0,0.0,1.0,0.0,0.0,0.0,0.0,0.0,0.0,0.0,0.0,0.0,0.0,0.0,0.0
0.34900000000000025,9.315363173526029,[ 0.1975714   0.16401177 -0.29508876],0.0,0.0,1.0,0.0,0.0,0.0,0.0,0.0,0.0,0.0,0.0,0.0,0.0,0.0,0.0
0.35000000000000026,9.311386964192646,[ 0.19566265  0.16253861 -0.29480195],0.0,0.0,1.0,0.0,0.0,0.0,0.0,0.0,0.0,0.0,0.0,0.0,0.0,0.0,0.0
0.35100000000000026,9.307453383007315,[ 0.19377893  0.16108329 -0.29451619],0.0,0.0,1.0,0.0,0.0,0.0,0.0,0.0,0.0,0.0,0.0,0.0,0.0,0.0,0.0
0.35200000000000026,9.303562062381804,[ 0.19192006  0.1596457  -0.29423149],0.0,0.0,1.0,0.0,0.0,0.0,0.0,0.0,0.0,0.0,0.0,0.0,0.0,0.0,0.0
0.35300000000000026,9.29971263789367,[ 0.19008586  0.1582257  -0.29394786],0.0,0.0,1.0,0.0,0.0,0.0,0.0,0.0,0.0,0.0,0.0,0.0,0.0,0.0,0.0
0.35400000000000026,9.295904748258799,[ 0.18827617  0.15682319 -0.29366528],0.0,0.0,1.0,0.0,0.0,0.0,0.0,0.0,0.0,0.0,0.0,0.0,0.0,0.0,0.0
0.35500000000000026,9.292138035304193,[ 0.18649081  0.15543805 -0.29338378],0.0,0.0,1.0,0.0,0.0,0.0,0.0,0.0,0.0,0.0,0.0,0.0,0.0,0.0,0.0
0.35600000000000026,9.288412143940919,[ 0.18472961  0.15407015 -0.29310335],0.0,0.0,1.0,0.0,0.0,0.0,0.0,0.0,0.0,0.0,0.0,0.0,0.0,0.0,0.0
0.35700000000000026,9.284726722137313,[ 0.18299238  0.15271937 -0.292824  ],0.0,0.0,1.0,0.0,0.0,0.0,0.0,0.0,0.0,0.0,0.0,0.0,0.0,0.0,0.0
0.35800000000000026,9.281081420892352,[ 0.18127896  0.1513856  -0.29254572],0.0,0.0,1.0,0.0,0.0,0.0,0.0,0.0,0.0,0.0,0.0,0.0,0.0,0.0,0.0
0.35900000000000026,9.277475894209267,[ 0.17958917  0.1500687  -0.29226853],0.0,0.0,1.0,0.0,0.0,0.0,0.0,0.0,0.0,0.0,0.0,0.0,0.0,0.0,0.0
0.36000000000000026,9.273909799069337,[ 0.17792283  0.14876857 -0.29199242],0.0,0.0,1.0,0.0,0.0,0.0,0.0,0.0,0.0,0.0,0.0,0.0,0.0,0.0,0.0
0.36100000000000027,9.27038279540589,[ 0.17627976  0.14748507 -0.29171739],0.0,0.0,1.0,0.0,0.0,0.0,0.0,0.0,0.0,0.0,0.0,0.0,0.0,0.0,0.0
0.36200000000000027,9.266894546078538,[ 0.17465979  0.14621809 -0.29144346],0.0,0.0,1.0,0.0,0.0,0.0,0.0,0.0,0.0,0.0,0.0,0.0,0.0,0.0,0.0
0.36300000000000027,9.263444716847568,[ 0.17306274  0.14496751 -0.2911706 ],0.0,0.0,1.0,0.0,0.0,0.0,0.0,0.0,0.0,0.0,0.0,0.0,0.0,0.0,0.0
0.36400000000000027,9.26003297634858,[ 0.17148843  0.14373319 -0.29089884],0.0,0.0,1.0,0.0,0.0,0.0,0.0,0.0,0.0,0.0,0.0,0.0,0.0,0.0,0.0
0.36500000000000027,9.256658996067298,[ 0.16993668  0.14251502 -0.29062817],0.0,0.0,1.0,0.0,0.0,0.0,0.0,0.0,0.0,0.0,0.0,0.0,0.0,0.0,0.0
0.36600000000000027,9.2533224503146,[ 0.16840732  0.14131288 -0.29035859],0.0,0.0,1.0,0.0,0.0,0.0,0.0,0.0,0.0,0.0,0.0,0.0,0.0,0.0,0.0
0.36700000000000027,9.25002301620173,[ 0.16690017  0.14012665 -0.29009009],0.0,0.0,1.0,0.0,0.0,0.0,0.0,0.0,0.0,0.0,0.0,0.0,0.0,0.0,0.0
0.36800000000000027,9.246760373615738,[ 0.16541504  0.13895619 -0.28982269],0.0,0.0,1.0,0.0,0.0,0.0,0.0,0.0,0.0,0.0,0.0,0.0,0.0,0.0,0.0
0.36900000000000027,9.243534205195072,[ 0.16395176  0.1378014  -0.28955637],0.0,0.0,1.0,0.0,0.0,0.0,0.0,0.0,0.0,0.0,0.0,0.0,0.0,0.0,0.0
0.3700000000000003,9.24034419630543,[ 0.16251015  0.13666214 -0.28929115],0.0,0.0,1.0,0.0,0.0,0.0,0.0,0.0,0.0,0.0,0.0,0.0,0.0,0.0,0.0
0.3710000000000003,9.237190035015747,[ 0.16109003  0.13553829 -0.28902701],0.0,0.0,1.0,0.0,0.0,0.0,0.0,0.0,0.0,0.0,0.0,0.0,0.0,0.0,0.0
0.3720000000000003,9.234071412074425,[ 0.15969122  0.13442973 -0.28876395],0.0,0.0,1.0,0.0,0.0,0.0,0.0,0.0,0.0,0.0,0.0,0.0,0.0,0.0,0.0
0.3730000000000003,9.230988020885727,[ 0.15831355  0.13333634 -0.28850198],0.0,0.0,1.0,0.0,0.0,0.0,0.0,0.0,0.0,0.0,0.0,0.0,0.0,0.0,0.0
0.3740000000000003,9.227939557486378,[ 0.15695682  0.13225799 -0.2882411 ],0.0,0.0,1.0,0.0,0.0,0.0,0.0,0.0,0.0,0.0,0.0,0.0,0.0,0.0,0.0
0.3750000000000003,9.22492572052236,[ 0.15562087  0.13119456 -0.28798129],0.0,0.0,1.0,0.0,0.0,0.0,0.0,0.0,0.0,0.0,0.0,0.0,0.0,0.0,0.0
0.3760000000000003,9.2219462112259,[ 0.15430552  0.13014593 -0.28772257],0.0,0.0,1.0,0.0,0.0,0.0,0.0,0.0,0.0,0.0,0.0,0.0,0.0,0.0,0.0
0.3770000000000003,9.21900073339263,[ 0.15301058  0.12911197 -0.28746492],0.0,0.0,1.0,0.0,0.0,0.0,0.0,0.0,0.0,0.0,0.0,0.0,0.0,0.0,0.0
0.3780000000000003,9.216088993358971,[ 0.15173587  0.12809257 -0.28720834],0.0,0.0,1.0,0.0,0.0,0.0,0.0,0.0,0.0,0.0,0.0,0.0,0.0,0.0,0.0
0.3790000000000003,9.213210699979674,[ 0.15048123  0.1270876  -0.28695284],0.0,0.0,1.0,0.0,0.0,0.0,0.0,0.0,0.0,0.0,0.0,0.0,0.0,0.0,0.0
0.3800000000000003,9.210365564605572,[ 0.14924646  0.12609693 -0.2866984 ],0.0,0.0,1.0,0.0,0.0,0.0,0.0,0.0,0.0,0.0,0.0,0.0,0.0,0.0,0.0
0.3810000000000003,9.2075533010615,[ 0.14803139  0.12512045 -0.28644503],0.0,0.0,1.0,0.0,0.0,0.0,0.0,0.0,0.0,0.0,0.0,0.0,0.0,0.0,0.0
0.3820000000000003,9.204773625624412,[ 0.14683584  0.12415804 -0.28619273],0.0,0.0,1.0,0.0,0.0,0.0,0.0,0.0,0.0,0.0,0.0,0.0,0.0,0.0,0.0
0.3830000000000003,9.202026257001688,[ 0.14565964  0.12320956 -0.28594148],0.0,0.0,1.0,0.0,0.0,0.0,0.0,0.0,0.0,0.0,0.0,0.0,0.0,0.0,0.0
0.3840000000000003,9.199310916309608,[ 0.14450261  0.1222749  -0.28569129],0.0,0.0,1.0,0.0,0.0,0.0,0.0,0.0,0.0,0.0,0.0,0.0,0.0,0.0,0.0
0.3850000000000003,9.196627327052031,[ 0.14336456  0.12135394 -0.28544215],0.0,0.0,1.0,0.0,0.0,0.0,0.0,0.0,0.0,0.0,0.0,0.0,0.0,0.0,0.0
0.3860000000000003,9.193975215099234,[ 0.14224532  0.12044656 -0.28519406],0.0,0.0,1.0,0.0,0.0,0.0,0.0,0.0,0.0,0.0,0.0,0.0,0.0,0.0,0.0
0.3870000000000003,9.191354308666945,[ 0.14114472  0.11955263 -0.28494701],0.0,0.0,1.0,0.0,0.0,0.0,0.0,0.0,0.0,0.0,0.0,0.0,0.0,0.0,0.0
0.3880000000000003,9.188764338295554,[ 0.14006258  0.11867203 -0.28470101],0.0,0.0,1.0,0.0,0.0,0.0,0.0,0.0,0.0,0.0,0.0,0.0,0.0,0.0,0.0
0.3890000000000003,9.186205036829499,[ 0.13899871  0.11780465 -0.28445604],0.0,0.0,1.0,0.0,0.0,0.0,0.0,0.0,0.0,0.0,0.0,0.0,0.0,0.0,0.0
0.3900000000000003,9.183676139396828,[ 0.13795296  0.11695036 -0.2842121 ],0.0,0.0,1.0,0.0,0.0,0.0,0.0,0.0,0.0,0.0,0.0,0.0,0.0,0.0,0.0
0.3910000000000003,9.181177383388953,[ 0.13692513  0.11610904 -0.28396919],0.0,0.0,1.0,0.0,0.0,0.0,0.0,0.0,0.0,0.0,0.0,0.0,0.0,0.0,0.0
0.3920000000000003,9.178708508440558,[ 0.13591505  0.11528057 -0.28372731],0.0,0.0,1.0,0.0,0.0,0.0,0.0,0.0,0.0,0.0,0.0,0.0,0.0,0.0,0.0
0.3930000000000003,9.176269256409695,[ 0.13492255  0.11446483 -0.28348644],0.0,0.0,1.0,0.0,0.0,0.0,0.0,0.0,0.0,0.0,0.0,0.0,0.0,0.0,0.0
0.3940000000000003,9.173859371358047,[ 0.13394746  0.11366171 -0.28324659],0.0,0.0,1.0,0.0,0.0,0.0,0.0,0.0,0.0,0.0,0.0,0.0,0.0,0.0,0.0
0.3950000000000003,9.171478599531365,[ 0.1329896   0.11287107 -0.28300774],0.0,0.0,1.0,0.0,0.0,0.0,0.0,0.0,0.0,0.0,0.0,0.0,0.0,0.0,0.0
0.3960000000000003,9.16912668934009,[ 0.1320488   0.11209282 -0.2827699 ],0.0,0.0,1.0,0.0,0.0,0.0,0.0,0.0,0.0,0.0,0.0,0.0,0.0,0.0,0.0
0.3970000000000003,9.16680339134011,[ 0.13112488  0.11132682 -0.28253306],0.0,0.0,1.0,0.0,0.0,0.0,0.0,0.0,0.0,0.0,0.0,0.0,0.0,0.0,0.0
0.3980000000000003,9.164508458213726,[ 0.13021768  0.11057295 -0.28229721],0.0,0.0,1.0,0.0,0.0,0.0,0.0,0.0,0.0,0.0,0.0,0.0,0.0,0.0,0.0
0.3990000000000003,9.162241644750765,[ 0.12932701  0.10983111 -0.28206236],0.0,0.0,1.0,0.0,0.0,0.0,0.0,0.0,0.0,0.0,0.0,0.0,0.0,0.0,0.0
0.4000000000000003,9.160002707829847,[ 0.12845271  0.10910117 -0.28182848],0.0,0.0,1.0,0.0,0.0,0.0,0.0,0.0,0.0,0.0,0.0,0.0,0.0,0.0,0.0
0.4010000000000003,9.157791406399861,[ 0.12759461  0.10838301 -0.28159558],0.0,0.0,1.0,0.0,0.0,0.0,0.0,0.0,0.0,0.0,0.0,0.0,0.0,0.0,0.0
0.4020000000000003,9.15560750146155,[ 0.12675254  0.10767652 -0.28136366],0.0,0.0,1.0,0.0,0.0,0.0,0.0,0.0,0.0,0.0,0.0,0.0,0.0,0.0,0.0
0.4030000000000003,9.153450756049304,[ 0.12592632  0.10698159 -0.28113271],0.0,0.0,1.0,0.0,0.0,0.0,0.0,0.0,0.0,0.0,0.0,0.0,0.0,0.0,0.0
0.4040000000000003,9.151320935213096,[ 0.12511579  0.10629809 -0.28090271],0.0,0.0,1.0,0.0,0.0,0.0,0.0,0.0,0.0,0.0,0.0,0.0,0.0,0.0,0.0
0.4050000000000003,9.14921780600058,[ 0.12432079  0.10562591 -0.28067367],0.0,0.0,1.0,0.0,0.0,0.0,0.0,0.0,0.0,0.0,0.0,0.0,0.0,0.0,0.0
0.4060000000000003,9.14714113743934,[ 0.12354113  0.10496493 -0.28044559],0.0,0.0,1.0,0.0,0.0,0.0,0.0,0.0,0.0,0.0,0.0,0.0,0.0,0.0,0.0
0.4070000000000003,9.145090700519331,[ 0.12277666  0.10431505 -0.28021844],0.0,0.0,1.0,0.0,0.0,0.0,0.0,0.0,0.0,0.0,0.0,0.0,0.0,0.0,0.0
0.4080000000000003,9.143066268175437,[ 0.1220272   0.10367614 -0.27999224],0.0,0.0,1.0,0.0,0.0,0.0,0.0,0.0,0.0,0.0,0.0,0.0,0.0,0.0,0.0
0.4090000000000003,9.141067615270208,[ 0.1212926   0.10304809 -0.27976697],0.0,0.0,1.0,0.0,0.0,0.0,0.0,0.0,0.0,0.0,0.0,0.0,0.0,0.0,0.0
0.4100000000000003,9.139094518576755,[ 0.12057268  0.1024308  -0.27954263],0.0,0.0,1.0,0.0,0.0,0.0,0.0,0.0,0.0,0.0,0.0,0.0,0.0,0.0,0.0
0.4110000000000003,9.137146756761785,[ 0.11986728  0.10182414 -0.27931921],0.0,0.0,1.0,0.0,0.0,0.0,0.0,0.0,0.0,0.0,0.0,0.0,0.0,0.0,0.0
0.4120000000000003,9.135224110368803,[ 0.11917624  0.101228   -0.27909671],0.0,0.0,1.0,0.0,0.0,0.0,0.0,0.0,0.0,0.0,0.0,0.0,0.0,0.0,0.0
0.4130000000000003,9.13332636180146,[ 0.1184994   0.10064227 -0.27887512],0.0,0.0,1.0,0.0,0.0,0.0,0.0,0.0,0.0,0.0,0.0,0.0,0.0,0.0,0.0
0.4140000000000003,9.131453295307043,[ 0.11783658  0.10006685 -0.27865443],0.0,0.0,1.0,0.0,0.0,0.0,0.0,0.0,0.0,0.0,0.0,0.0,0.0,0.0,0.0
0.4150000000000003,9.129604696960136,[ 0.11718764  0.09950161 -0.27843464],0.0,0.0,1.0,0.0,0.0,0.0,0.0,0.0,0.0,0.0,0.0,0.0,0.0,0.0,0.0
0.4160000000000003,9.12778035464642,[ 0.1165524   0.09894645 -0.27821574],0.0,0.0,1.0,0.0,0.0,0.0,0.0,0.0,0.0,0.0,0.0,0.0,0.0,0.0,0.0
0.4170000000000003,9.1259800580466,[ 0.11593071  0.09840126 -0.27799773],0.0,0.0,1.0,0.0,0.0,0.0,0.0,0.0,0.0,0.0,0.0,0.0,0.0,0.0,0.0
0.4180000000000003,9.124203598620525,[ 0.11532241  0.09786593 -0.2777806 ],0.0,0.0,1.0,0.0,0.0,0.0,0.0,0.0,0.0,0.0,0.0,0.0,0.0,0.0,0.0
0.4190000000000003,9.122450769591401,[ 0.11472734  0.09734034 -0.27756434],0.0,0.0,1.0,0.0,0.0,0.0,0.0,0.0,0.0,0.0,0.0,0.0,0.0,0.0,0.0
0.4200000000000003,9.120721365930182,[ 0.11414533  0.0968244  -0.27734896],0.0,0.0,1.0,0.0,0.0,0.0,0.0,0.0,0.0,0.0,0.0,0.0,0.0,0.0,0.0
0.4210000000000003,9.119015184340101,[ 0.11357624  0.09631799 -0.27713443],0.0,0.0,1.0,0.0,0.0,0.0,0.0,0.0,0.0,0.0,0.0,0.0,0.0,0.0,0.0
0.4220000000000003,9.117332023241335,[ 0.11301991  0.095821   -0.27692076],0.0,0.0,1.0,0.0,0.0,0.0,0.0,0.0,0.0,0.0,0.0,0.0,0.0,0.0,0.0
0.4230000000000003,9.115671682755805,[ 0.11247618  0.09533333 -0.27670794],0.0,0.0,1.0,0.0,0.0,0.0,0.0,0.0,0.0,0.0,0.0,0.0,0.0,0.0,0.0
0.4240000000000003,9.114033964692128,[ 0.11194489  0.09485487 -0.27649597],0.0,0.0,1.0,0.0,0.0,0.0,0.0,0.0,0.0,0.0,0.0,0.0,0.0,0.0,0.0
0.4250000000000003,9.112418672530712,[ 0.1114259   0.09438552 -0.27628483],0.0,0.0,1.0,0.0,0.0,0.0,0.0,0.0,0.0,0.0,0.0,0.0,0.0,0.0,0.0
0.4260000000000003,9.110825611408968,[ 0.11091904  0.09392516 -0.27607452],0.0,0.0,1.0,0.0,0.0,0.0,0.0,0.0,0.0,0.0,0.0,0.0,0.0,0.0,0.0
0.4270000000000003,9.10925458810668,[ 0.11042416  0.0934737  -0.27586504],0.0,0.0,1.0,0.0,0.0,0.0,0.0,0.0,0.0,0.0,0.0,0.0,0.0,0.0,0.0
0.4280000000000003,9.107705411031496,[ 0.10994113  0.09303103 -0.27565638],0.0,0.0,1.0,0.0,0.0,0.0,0.0,0.0,0.0,0.0,0.0,0.0,0.0,0.0,0.0
0.4290000000000003,9.106177890204558,[ 0.10946977  0.09259705 -0.27544854],0.0,0.0,1.0,0.0,0.0,0.0,0.0,0.0,0.0,0.0,0.0,0.0,0.0,0.0,0.0
0.4300000000000003,9.10467183724627,[ 0.10900994  0.09217165 -0.2752415 ],0.0,0.0,1.0,0.0,0.0,0.0,0.0,0.0,0.0,0.0,0.0,0.0,0.0,0.0,0.0
0.4310000000000003,9.103187065362187,[ 0.1085615   0.09175473 -0.27503526],0.0,0.0,1.0,0.0,0.0,0.0,0.0,0.0,0.0,0.0,0.0,0.0,0.0,0.0,0.0
0.43200000000000033,9.101723389329052,[ 0.1081243   0.09134619 -0.27482982],0.0,0.0,1.0,0.0,0.0,0.0,0.0,0.0,0.0,0.0,0.0,0.0,0.0,0.0,0.0
0.43300000000000033,9.100280625480936,[ 0.10769818  0.09094593 -0.27462517],0.0,0.0,1.0,0.0,0.0,0.0,0.0,0.0,0.0,0.0,0.0,0.0,0.0,0.0,0.0
0.43400000000000033,9.09885859169554,[ 0.107283    0.09055384 -0.2744213 ],0.0,0.0,1.0,0.0,0.0,0.0,0.0,0.0,0.0,0.0,0.0,0.0,0.0,0.0,0.0
0.43500000000000033,9.097457107380599,[ 0.10687862  0.09016982 -0.27421821],0.0,0.0,1.0,0.0,0.0,0.0,0.0,0.0,0.0,0.0,0.0,0.0,0.0,0.0,0.0
0.43600000000000033,9.096075993460424,[ 0.10648488  0.08979378 -0.27401589],0.0,0.0,1.0,0.0,0.0,0.0,0.0,0.0,0.0,0.0,0.0,0.0,0.0,0.0,0.0
0.43700000000000033,9.094715072362565,[ 0.10610165  0.08942562 -0.27381434],0.0,0.0,1.0,0.0,0.0,0.0,0.0,0.0,0.0,0.0,0.0,0.0,0.0,0.0,0.0
0.43800000000000033,9.093374168004598,[ 0.10572879  0.08906524 -0.27361355],0.0,0.0,1.0,0.0,0.0,0.0,0.0,0.0,0.0,0.0,0.0,0.0,0.0,0.0,0.0
